허가구역명,장소유형,시도명,시군구명,소재지도로명주소,소재지지번주소,위도,경도,푸드트럭운영대수,허가구역사용료,허가구역운영시작일자,허가구역운영종료일자,허가구역휴무일,허가구역평일운영시작시각,허가구역평일운영종료시각,허가구역주말운영시작시각,허가구역주말운영종료시각,1월운영시작시각,1월운영종료시각,2월운영시작시각,2월운영종료시각,3월운영시작시각,3월운영종료시각,4월운영시작시각,4월운영종료시각,5월운영시작시각,5월운영종료시각,6월운영시작시각,6월운영종료시각,7월운영시작시각,7월운영종료시각,8월운영시작시각,8월운영종료시각,9월운영시작시각,9월운영종료시각,10월운영시작시각,10월운영종료시각,11월운영시작시각,11월운영종료시각,12월운영시작시각,12월운영종료시각,판매제한품목,관리기관명,관리기관전화번호,데이터기준일자,제공기관코드,제공기관명
부산대학교내 장승터,6,부산광역시,금정구,부산광역시 금정구 부산대학로 63번길 2,부산광역시 금정구 장전동 40,35.23224315,129.0838247,1,0,2018-04-30,2018-05-04,토요일+일요일+공휴일,11:00,15:00,00:00,00:00,00:00,00:00,00:00,00:00,00:00,00:00,11:00,15:00,11:00,15:00,00:00,00:00,00:00,00:00,00:00,00:00,00:00,00:00,00:00,00:00,00:00,00:00,00:00,00:00,,부산광역시 금정구청,051-519-4414,2021-10-25,3350000,부산광역시 금정구
금양초등학교,6,부산광역시,금정구,부산광역시 금정구 중앙대로 1755,부산광역시 금정구 부곡동 63-27,35.24123566,129.0920249,1,0,2018-08-04,2018-08-05,평일,00:00,00:00,10:00,18:00,00:00,00:00,00:00,00:00,00:00,00:00,00:00,00:00,00:00,00:00,00:00,00:00,00:00,00:00,10:00,18:00,00:00,00:00,00:00,00:00,00:00,00:00,00:00,00:00,,부산광역시 금정구청,051-519-4414,2021-10-25,3350000,부산광역시 금정구
부산가톨릭대학교 로사리오광장,6,부산광역시,금정구,"부산광역시 금정구 오륜대로 57, 부산가톨릭대학교 로사리오광장 (부곡동)",부산광역시 금정구 부곡동 9,35.24467702,129.0968719,1,0,2019-09-25,2019-09-25,평일,00:00,00:00,10:00,18:00,00:00,00:00,00:00,00:00,00:00,00:00,00:00,00:00,00:00,00:00,00:00,00:00,00:00,00:00,10:00,18:00,00:00,00:00,00:00,00:00,00:00,00:00,00:00,00:00,,부산광역시 금정구청,051-519-4414,2021-10-25,3350000,부산광역시 금정구
호계2차현대홈타운,08,경기도,안양시,경기도 안양시 동안구 경수대로 462 (호계동 호계2차현대홈타운),,,,,매출액 15퍼센트(VAT별도),2020-09-21,2022-12-30,월+화+수+목+토+일,11:00,18:00,00:00,00:00,,,,,,,,,,,,,,,,,,,,,,,,,,경기도 안양시청,031-8045-4313,2022-12-07,3830000,경기도 안양시
안양종합운동장,08,경기도,안양시,경기도 안양시 동안구 평촌대로 389,경기도 안양시 동안구 비산동 1023,,,,매출액 15퍼센트(VAT별도),2022-02-19,2022-10-15,토+일,09:00,18:00,00:00,00:00,,,,,,,,,,,,,,,,,,,,,,,,,,경기도 안양시청,031-8045-4313,2022-12-07,3830000,경기도 안양시
은하수 한양아파트,08,경기도,안양시,경기도 안양시 동안구 동안로159번길 14 (비산동 은하수한양아파트),,,,,아파트 내부 규정,2022-05-23,2023-11-07,화+수+목+금+토+일,09:00,20:00,00:00,00:00,,,,,,,,,,,,,,,,,,,,,,,,,,경기도 안양시청,031-8045-4316,2022-12-07,3830000,경기도 안양시
삼성래미안아파트,08,경기도,안양시,경기도 안양시 만안구 안양천서로 311(안양동 삼성래미안아파트),,,,,아파트 내부 규정,2018-09-13,2020-09-12,월+수+목+금+토+일,09:00,20:00,00:00,00:00,,,,,,,,,,,,,,,,,,,,,,,,,,경기도 안양시청,031-8045-3323,2022-12-07,3830000,경기도 안양시
한라비발디아파트,08,경기도,안양시,경기도 안양시 만안구 박달로 453 (박달동 한라비발디아파트),,,,,아파트 내부 규정,2020-08-21,2021-04-11,월+화+수+금+토+일,09:00,20:00,00:00,00:00,,,,,,,,,,,,,,,,,,,,,,,,,,경기도 안양시청,031-8045-3323,2022-12-07,3830000,경기도 안양시
중앙체육공원,04,전라북도,익산시,전라북도 익산시 하나로 322,전라북도 익산시 어양동 52,35.9497295074,126.9861273792,1,14300,2016-10-06,2019-10-05,무,10:00,21:00,10:00,21:00,10:00,21:00,10:00,21:00,10:00,21:00,10:00,21:00,10:00,21:00,10:00,21:00,10:00,21:00,10:00,21:00,10:00,21:00,10:00,21:00,10:00,21:00,10:00,21:00,,전라북도 익산시청,063-859-4692,2022-03-18,4680000,전라북도 익산시
강화군 화도면,8,인천광역시,강화군,,인천광역시 강화군 화도면 사기리 301-2,37.61059258,126.457179,1,200000,2019-09-06,2022-05-19,연중무휴,08:00,21:00,08:00,21:00,,,,,,,,,,,,,,,,,,,,,,,,,,인천광역시 강화군청,032-930-3833,2022-02-28,3570000,인천광역시 강화군
교동면 난정저수지,8,인천광역시,강화군,,인천광역시 강화군 교동면 난정리 743-5,37.77623225,126.2302965,1,0,2020-10-15,2024-10-17,연중무휴,08:00,21:00,08:00,21:00,,,,,,,,,,,,,,,,,,,,,,,,,,인천광역시 강화군청,032-930-3833,2022-02-28,3570000,인천광역시 강화군
이순신공원,2,경상남도,통영시,,경상남도 통영시 정량동 685-2,34.8443048286,128.4415905758,3,년 94200원,2022-01-04,2026-12-31,연중무휴,09:00,18:00,09:00,18:00,09:00,18:00,09:00,18:00,09:00,18:00,09:00,18:00,09:00,18:00,09:00,18:00,09:00,18:00,09:00,18:00,09:00,18:00,09:00,18:00,09:00,18:00,09:00,18:00,,경상남도 통영시,055-650-6023,2022-01-24,5330000,경상남도 통영시
우포늪생태공원,2,경상남도,창녕군,,경상남도 창녕군 유어면 세진리 251-1,35.5446639943,128.4181994553,1,0,2020-02-01,2022-01-31,연중무휴,09:00,22:00,09:00,22:00,09:00,20:00,09:00,20:00,09:00,22:00,09:00,22:00,09:00,22:00,09:00,22:00,09:00,22:00,09:00,22:00,09:00,22:00,09:00,22:00,09:00,22:00,09:00,20:00,허가품목 외,경상남도 창녕군청,055-530-1094,2022-01-14,5410000,경상남도 창녕군
남지읍수변생태공원,5,경상남도,창녕군,,경상남도 창녕군 남지읍 남지리 835-16,35.3846449917,128.4740152549,3,0,2019-09-13,2021-09-12,연중무휴,09:00,22:00,09:00,22:00,09:00,20:00,09:00,20:00,09:00,22:00,09:00,22:00,09:00,22:00,09:00,22:00,09:00,22:00,09:00,22:00,09:00,22:00,09:00,22:00,09:00,22:00,09:00,20:00,허가품목 외,경상남도 창녕군청,055-530-1094,2022-01-14,5410000,경상남도 창녕군
낙동강하천공원주차장,5,경상남도,창녕군,,경상남도 창녕군 남지읍 용산리 160-2,35.3945503803,128.440563,1,0,2020-10-18,2022-10-17,연중무휴,09:00,22:00,09:00,22:00,09:00,20:00,09:00,20:00,09:00,22:00,09:00,22:00,09:00,22:00,09:00,22:00,09:00,22:00,09:00,22:00,09:00,22:00,09:00,22:00,09:00,22:00,09:00,20:00,허가품목 외,경상남도 창녕군청,055-530-1094,2022-01-14,5410000,경상남도 창녕군
풍암호수공원,4,광주광역시,서구,광주광역시 서구 풍암동 491-3,광주광역시 서구 풍암동 491-3,35.1264207,126.868935,1,연 25930,2021-08-12,2023-07-31,연중무휴,10:00,19:00,10:00,19:00,10:00,17:00,10:00,17:00,10:00,19:00,10:00,19:00,10:00,19:00,10:00,21:00,10:00,21:00,10:00,21:00,10:00,21:00,10:00,19:00,10:00,17:00,10:00,17:00,영업신고 외 품목 판매금지,광주광역시 서구청,062-350-4938,2022-11-21,3600000,광주광역시 서구
입곡군립공원 주차장,2,경상남도,함안군,,경상남도 함안군 산인면 입곡리 1181,,,1,7370원/연,2016-10-10,2022-10-09,연중무휴,09:00,18:00,09:00,18:00,09:00,18:00,09:00,18:00,09:00,18:00,09:00,18:00,09:00,18:00,09:00,18:00,09:00,18:00,09:00,18:00,09:00,18:00,09:00,18:00,09:00,18:00,09:00,18:00,주류+담배,함안군,055-580-3413,2022-11-09,5400000,경상남도 함안군
입곡군립공원 아라힐링카페,2,경상남도,함안군,,경상남도 함안군 산인면 입곡리 1310,,,1,2530원/연,2018-11-14,2024-11-13,연중무휴,09:00,18:00,09:00,18:00,09:00,18:00,09:00,18:00,09:00,18:00,09:00,18:00,09:00,18:00,09:00,18:00,09:00,18:00,09:00,18:00,09:00,18:00,09:00,18:00,09:00,18:00,09:00,18:00,주류+담배,함안군,055-580-3413,2022-11-09,5400000,경상남도 함안군
악양생태공원,4,경상남도,함안군,,경상남도 함안군 대산면 하기리 806,,,1,4370원/연,2018-12-06,2024-12-05,성수기 외 휴무,09:00,18:00,09:00,18:00,09:00,18:00,09:00,18:00,09:00,18:00,09:00,18:00,09:00,18:00,09:00,18:00,09:00,18:00,09:00,18:00,09:00,18:00,09:00,18:00,09:00,18:00,09:00,18:00,주류+담배,함안군,055-580-3433,2022-11-09,5400000,경상남도 함안군
연꽃테마파크,4,경상남도,함안군,,경상남도 함안군 가야읍 가야리 12-6,,,1,4370원/연,2018-12-06,2024-12-05,성수기 외 휴무,09:00,18:00,09:00,18:00,09:00,18:00,09:00,18:00,09:00,18:00,09:00,18:00,09:00,18:00,09:00,18:00,09:00,18:00,09:00,18:00,09:00,18:00,09:00,18:00,09:00,18:00,09:00,18:00,주류+담배,함안군,055-580-3433,2022-11-09,5400000,경상남도 함안군
강나루생태공원,5,경상남도,함안군,,경상남도 함안군 칠서면 이룡리 996-8,,,1,4554원/연,2015-07-16,2025-07-15,연중무휴,09:00,18:00,09:00,18:00,09:00,18:00,09:00,18:00,09:00,18:00,09:00,18:00,09:00,18:00,09:00,18:00,09:00,18:00,09:00,18:00,09:00,18:00,09:00,18:00,09:00,18:00,09:00,18:00,주류+담배,함안군,055-580-3414,2022-11-09,5400000,경상남도 함안군
해운대구청,08,부산광역시,해운대구,부산광역시 해운대구 중동2로 11,부산광역시 해운대구 중동 1378-95,35.1631596,129.1635629,1,연간 2523950원,2017-01-01,2022-12-31,일요일 휴무,08:00,18:00,08:00,18:00,,,,,,,,,,,,,,,,,,,,,,,,,주류,부산광역시 해운대구청,051-749-4404,2022-10-17,3330000,부산광역시 해운대구
부산시청 푸드트럭존,8,부산광역시,연제구,부산광역시 연제구 중앙대로 1001,부산광역시 연제구 연산동 1000,35.17992599,129.0750952,2,0,2017-12-22,2018-12-22,연중무휴,00:00,23:59,00:00,23:59,,,,,,,,,,,,,,,,,,,,,,,,,,연제구청,051-665-4411,2022-10-20,3370000,부산광역시 연제구
아시아드주경기장,8,부산광역시,연제구,부산광역시 연제구 월드컵대로 344,부산광역시 연제구 거제동 1299,35.19008744,129.058356,7,0,2017-11-23,2018-10-31,연중무휴,00:00,23:59,00:00,23:59,,,,,,,,,,,,,,,,,,,,,,,,,,연제구청,051-665-4411,2022-10-20,3370000,부산광역시 연제구
신라대학교 대운동장,7,부산광역시,사상구,"부산광역시 사상구 백양대로700번길 140, 신라대학교 대운동장 (괘법동)",부산광역시 사상구 괘법동 산 1-23,,,1,0,2022-10-26,2022-10-27,운영종료(행사기간 중 한시적 운영),10:00,21:00,00:00,00:00,,,,,,,,,,,,,,,,,,,,,,,,,,부산광역시 사상구청,051-310-4404,2022-11-21,3390000,부산광역시 사상구
대화전통시장,99,강원도,평창군,강원도 평창군 대화면 대화3길 41,강원도 평창군 대화리 1001-171,37.50069585,128.4547123,,0,2020-04-24,2030-12-31,4일+9일+14일+19일+24일+29일,09:00,19:00,09:00,19:00,09:00,19:00,09:00,19:00,09:00,19:00,09:00,19:00,09:00,19:00,09:00,19:00,09:00,19:00,09:00,19:00,09:00,19:00,09:00,19:00,09:00,19:00,09:00,19:00,주류,평창군,033-330-2314,2022-09-26,4280000,강원도 평창군
마하생태관광단지,2,강원도,평창군,강원도 평창군 미탄면 문희길 63,강원도 평창군 미탄면 마하리 82,37.2778622165,128.5770658685,,0,2019-05-01,2030-12-31,연중무휴,09:00,19:00,09:00,19:00,09:00,19:00,09:00,19:00,09:00,19:00,09:00,19:00,09:00,19:00,09:00,19:00,09:00,19:00,09:00,19:00,09:00,19:00,09:00,19:00,09:00,19:00,09:00,19:00,주류,평창군,033-330-2314,2022-09-26,4280000,강원도 평창군
봉평전통시장,99,강원도,평창군,강원도 평창군 봉평면 허생원장터길 15,강원도 평창군 봉평면 창동로 397-34,37.6155917832,128.3772803,,0,2020-04-24,2030-12-31,2일+7일+12일+17일+22일+27일,09:00,19:00,09:00,19:00,09:00,19:00,09:00,19:00,09:00,19:00,09:00,19:00,09:00,19:00,09:00,19:00,09:00,19:00,09:00,19:00,09:00,19:00,09:00,19:00,09:00,19:00,09:00,19:00,주류,평창군,033-330-2314,2022-09-26,4280000,강원도 평창군
알펜시아 리조트,2,강원도,평창군,강원도 평창군 대관령면 솔봉로 325,강원도 평창군 대관령면 용산리 195-1,37.6592541743,128.6840106671,,0,2019-05-01,2030-12-31,연중무휴,09:00,19:00,09:00,19:00,09:00,19:00,09:00,19:00,09:00,19:00,09:00,19:00,09:00,19:00,09:00,19:00,09:00,19:00,09:00,19:00,09:00,19:00,09:00,19:00,09:00,19:00,09:00,19:00,주류,평창군,033-330-2314,2022-09-26,4280000,강원도 평창군
용평리조트,2,강원도,평창군,강원도 평창군 대관령면 올림픽로 715,강원도 평창군 대관령면 용산리 130,37.6509444362,128.7055568606,,0,2019-05-01,2030-12-31,연중무휴,09:00,19:00,09:00,19:00,09:00,19:00,09:00,19:00,09:00,19:00,09:00,19:00,09:00,19:00,09:00,19:00,09:00,19:00,09:00,19:00,09:00,19:00,09:00,19:00,09:00,19:00,09:00,19:00,주류,평창군,033-330-2314,2022-09-26,4280000,강원도 평창군
진부전통시장,99,강원도,평창군,강원도 평창군 진부면 진부새싹길 28-7,강원도 평창군 진부면 하진부리 206-95,37.638231,128.5579259,,0,2020-04-24,2030-12-31,3일+8일+13일+18일+23일+28일,09:00,19:00,09:00,19:00,09:00,19:00,09:00,19:00,09:00,19:00,09:00,19:00,09:00,19:00,09:00,19:00,09:00,19:00,09:00,19:00,09:00,19:00,09:00,19:00,09:00,19:00,09:00,19:00,주류,평창군,033-330-2314,2022-09-26,4280000,강원도 평창군
평창 휘닉스파크,2,강원도,평창군,강원도 평창군 봉평면 태기로 174,강원도 평창군 봉평면 면온리 1095-1,37.5824634130,128.3268677594,,0,2019-05-01,2030-12-31,연중무휴,09:00,19:00,09:00,19:00,09:00,19:00,09:00,19:00,09:00,19:00,09:00,19:00,09:00,19:00,09:00,19:00,09:00,19:00,09:00,19:00,09:00,19:00,09:00,19:00,09:00,19:00,09:00,19:00,주류,평창군,033-330-2314,2022-09-26,4280000,강원도 평창군
평창전통시장,99,강원도,평창군,강원도 평창군 평창읍 평창시장1길 8-1,강원도 평창군 평창읍 하리 55-6,37.36684873,128.3945773,,0,2020-04-24,2030-12-31,5일+10일+15일+20일+25일+30일,09:00,19:00,09:00,19:00,09:00,19:00,09:00,19:00,09:00,19:00,09:00,19:00,09:00,19:00,09:00,19:00,09:00,19:00,09:00,19:00,09:00,19:00,09:00,19:00,09:00,19:00,09:00,19:00,주류,평창군,033-330-2314,2022-09-26,4280000,강원도 평창군
광명동굴 내,04,경기도,광명시,경기도 광명시 가학로85번길 142,경기도 광명시 가학동 27,37.42467857,126.8634321,3,연 7000원~8000원,2017-01-09,2022-09-30,연중무휴,09:00,18:00,09:00,18:00,,,,,,,,,,,,,09:00,18:00,09:00,18:00,09:00,18:00,,,,,,,,경기도 광명시 생활위생과,02-2680-5483,2022-09-28,3900000,경기도 광명시
안양천 햇무리광장,05,경기도,광명시,,경기도 광명시 철산동   459,37.4825283576,126.8720358,2,연 37400원,2022-03-14,2022-12-31,연중무휴,10:00,21:00,10:00,21:00,,,,,,,,,,,,,,,,,,,,,,,,,,경기도 광명시 생활위생과,02-2680-2985,2022-09-28,3900000,경기도 광명시
오장폭포주차장,2,강원도,정선군,,강원도 정선군 여량면 구절리 산 2,37.52001009,128.7337022,1,10만원(10년치),2017-01-19,2027-01-19,연중무휴,09:00,17:00,09:00,17:00,09:00,17:00,09:00,17:00,09:00,17:00,09:00,17:00,09:00,17:00,09:00,17:00,09:00,17:00,09:00,17:00,09:00,17:00,09:00,17:00,09:00,17:00,09:00,17:00,식품외품목,강원도 정선군청,033-560-2010,2022-09-26,4290000,강원도 정선군
만항재,2,강원도,정선군,강원도 정선군 고한읍 함백산로 865,강원도 정선군 고한읍 고한리 산 215-3,37.1485691,128.8989922,1,120만원(1년치),2017-06-12,2018-06-12,연중무휴,10:00,17:00,08:30,18:00,10:00,17:00,10:00,17:00,10:00,17:00,10:00,17:00,10:00,17:00,10:00,17:00,10:00,17:00,10:00,17:00,10:00,17:00,10:00,17:00,10:00,17:00,10:00,17:00,식품외품목,강원도 정선군청,033-560-2010,2022-09-26,4290000,강원도 정선군
강변축구장,3,대구광역시,북구,대구광역시 북구 조야로2길 113-30(서변동),대구광역시 북구 서변동 1568-2,35.90898711,128.5903467,,월 89480원,2016-05-25,2018-05-22,비정기적+우천시휴무,00:00,23:59,00:00,23:59,,,,,,,,,,,,,,,,,,,,,,,,,,대구광역시 북구청 위생과,053-665-2754,2022-09-08,3450000,대구광역시 북구
검단졸음쉼터(부산방향),7,대구광역시,북구,대구광역시 북구 경부고속도로 131(검단동),대구광역시 북구 검단동 543-2,35.91491799,128.6134753,,월매출액의 1퍼센트,2016-06-28,2020-07-15,연중무휴,07:00,19:00,07:00,19:00,,,,,,,,,,,,,,,,,,,,,,,,,,대구광역시 북구청 위생과,053-665-2754,2022-09-08,3450000,대구광역시 북구
검단졸음쉼터(서울방향),7,대구광역시,북구,,대구광역시 북구 검단동 376-11,35.91588964,128.6152014,,월매출액의 1퍼센트,2016-06-28,2018-06-30,연중무휴,07:00,19:00,07:00,19:00,,,,,,,,,,,,,,,,,,,,,,,,,,대구광역시 북구청 위생과,053-665-2754,2022-09-08,3450000,대구광역시 북구
구수산도서관 주차장,8,대구광역시,북구,대구광역시 북구 대천로 21(읍내동),대구광역시 북구 읍내동 967-1,35.93874352,128.5524048,,월 89480원,2016-12-27,2017-12-26,비정기적+우천시휴무,00:00,23:59,00:00,23:59,,,,,,,,,,,,,,,,,,,,,,,,,,대구광역시 북구청 위생과,053-665-2754,2022-09-08,3450000,대구광역시 북구
북구청광장,8,대구광역시,북구,대구광역시 북구 옥산로 65(침산동),대구광역시 북구 침산동 447-16,35.8856843,128.5827802,,0,2017-10-13,2017-10-13,비정기적+우천시휴무,00:00,23:59,00:00,23:59,,,,,,,,,,,,,,,,,,,,,,,,,,대구광역시 북구청 위생과,053-665-2754,2022-09-08,3450000,대구광역시 북구
검단파크골프장,3,대구광역시,북구,,대구광역시 북구 검단동 277,35.92459946,128.6206696,,연 234550원,2021-07-01,2023-06-30,비정기적+우천시휴무,09:00,18:00,09:00,18:00,,,,,,,,,,,,,,,,,,,,,,,,,,대구광역시 북구청 위생과,053-665-2754,2022-09-08,3450000,대구광역시 북구
곡교천 은행나무길,5,충청남도,아산시,,충청남도 아산시 염치읍 송곡리 113-2,,,5,"898,540",2021-06-09,2022-06-08,매주 월요일+신정+설날+추석 전일+추석 당일,11:00,18:00,11:00,18:00,,,,,,,,,,,,,,,,,,,,,,,,,,프라미스온㈜,041-545-1171,2021-12-14,4520000,충청남도 아산시
인천대학교 BTL생활원 부속시설,6,인천광역시,연수구,"인천광역시 연수구 아카데미로 119, 인천대학교 BTL생활원 부속시설",인천광역시 연수구 송도동12-1,37.37785571,126.6325053,1,-,2018-04-24,2023-02-01,"토요일,일요일",10:00,19:00,00:00,00:00,,,,,,,,,,,,,,,,,,,,,,,,,,미래행복(주),032-556-4503,2021-10-25,3520000,인천광역시 연수구
진주네 분식,99,충청북도,흥덕구,"충청북도 청주시 흥덕구 강내면 탑연월곡길 62-13, 오작교광장호 (청원쌍용예가 1단지아파트)",충청북도 청주시 흥덕구 강내면 월곡리 428 청원쌍용예가 1단지아파트,,,,0,2021-05-10,2021-07-22,연중무휴,10:00,20:00,10:00,20:00,,,,,,,,,,,,,,,,,,,,,,,,,,충청북도 청주시 흥덕구청,043-201-1972,2022-08-18,5710000,충청북도 청주시
광수식품,99,충청북도,흥덕구,충청북도 청주시 흥덕구 강내면 탑연월곡길 62-13 (청원쌍용예가 1단지아파트),충청북도 청주시 흥덕구 강내면 월곡리 428 청원쌍용예가 1단지아파트,,,,0,2021-05-24,2023-07-22,연중무휴,10:00,20:00,10:00,20:00,,,,,,,,,,,,,,,,,,,,,,,,,,충청북도 청주시 흥덕구청,043-201-1972,2022-08-18,5710000,충청북도 청주시
압구정로,99,서울특별시,강남구,서울특별시 강남구 압구정로32길 38,서울특별시 강남구 신사동 604,37.52538646,127.0296223,1,210100,2021-05-17,2022-12-31,연중무휴,11:30,22:00,11:30,22:00,11:30,22:00,11:30,22:00,11:30,22:00,11:30,22:00,11:30,22:00,11:30,22:00,11:30,22:00,11:30,22:00,11:30,22:00,11:30,22:00,11:30,22:00,11:30,22:00,,서울특별시 강남구청,02-3423-6532,2022-12-01,3220000,서울특별시 강남구
테헤란로64길,99,서울특별시,강남구,서울특별시 강남구 테헤란로64길 19,서울특별시 강남구 대치동 890-57,37.50377347,127.0518024,1,609020,2022-02-15,2022-12-31,연중무휴,11:30,22:00,11:30,22:00,11:30,22:00,11:30,22:00,11:30,22:00,11:30,22:00,11:30,22:00,11:30,22:00,11:30,22:00,11:30,22:00,11:30,22:00,11:30,22:00,11:30,22:00,11:30,22:00,,서울특별시 강남구청,02-3423-6532,2022-12-01,3220000,서울특별시 강남구
원산도 체육공원 푸드존,3,충청남도,보령시,,충청남도 보령시 오천면 원산도리 975-2,,,,연 38500원,2022-04-01,2024-12-31,연중무휴,00:00,23:59,00:00,23:59,,,,,,,,,,,,,,,,,,,,,,,,,,충청남도 보령시청 원산도출장소,041-936-1760,2022-11-30,4510000,충청남도 보령시
원산도 해수욕장 푸드존,1,충청남도,보령시,,충청남도 보령시 오천면 원산도리 1860-13,,,,연 188950원,2021-10-01,2024-12-31,연중무휴,00:00,23:59,00:00,23:59,,,,,,,,,,,,,,,,,,,,,,,,,,충청남도 보령시청 원산도출장소,041-936-1760,2022-11-30,4510000,충청남도 보령시
서울혁신파크,08,서울특별시,은평구,서울특별시 은평구 통일로 684,서울특별시 은평구 녹번동 5-29,37.6084420000,126.9334960000,1,"년 1,826,770원",2017-03-14,2020-12-31,미운영,00:00,00:00,00:00,00:00,,,,,,,,,,,,,,,,,,,,,,,,,,서울특별시 은평구,02-351-8175,2021-08-10,3110000,서울특별시 은평구
수제생통까스,99,충청북도,흥덕구,"충청북도 청주시 흥덕구 송화로214번길 7, 푸드트럭호 (송절동, 청주테크노폴리스푸르지오)",충청북도 청주시 흥덕구 송절동 851 청주테크노폴리스푸르지오,,,,0,2021-01-25,2023-05-10,연중무휴,10:00,20:00,10:00,20:00,,,,,,,,,,,,,,,,,,,,,,,,,,충청북도 청주시 흥덕구청,043-201-1972,2022-08-18,5710000,충청북도 청주시
수제 타코야끼,99,충청북도,흥덕구,"충청북도 청주시 흥덕구 송화로214번길 7, 1층 (송절동, 청주테크노폴리스푸르지오)",충청북도 청주시 흥덕구 송절동 851 청주테크노폴리스푸르지오,,,,0,2021-02-01,2022-05-10,연중무휴,10:00,20:00,10:00,20:00,,,,,,,,,,,,,,,,,,,,,,,,,,충청북도 청주시 흥덕구청,043-201-1972,2022-08-18,5710000,충청북도 청주시
호식이빵,99,충청북도,흥덕구,"충청북도 청주시 흥덕구 송화로214번길 7 (송절동, 청주테크노폴리스푸르지오)",충청북도 청주시 흥덕구 송절동 851 청주테크노폴리스푸르지오,,,,0,2021-04-27,2023-05-10,연중무휴,10:00,20:00,10:00,20:00,,,,,,,,,,,,,,,,,,,,,,,,,,충청북도 청주시 흥덕구청,043-201-1972,2022-08-18,5710000,충청북도 청주시
양재역 5번,99,서울특별시,서초구,서울특별시 서초구 남부순환로350길 4,서울특별시 서초구 양재동 12-3,37.48433811,127.035167,2,796400,2017-01-01,2022-12-31,연중무휴,12:00,23:00,12:00,23:00,12:00,23:00,12:00,23:00,12:00,23:00,12:00,23:00,12:00,23:00,12:00,23:00,12:00,23:00,12:00,23:00,12:00,23:00,12:00,23:00,12:00,23:00,12:00,23:00,,서울특별시 서초구,02-2155-6954,2022-11-25,3210000,서울특별시 서초구
고속국도 졸음쉼터,1,경기도,양주시,경기도 양주시 장흥면 서울외곽순환고속도로 58,경기도 양주시 장흥면 삼하리 250-16,37.67919783,126.9157818,1,월6500000원,2016-02-05,2022-02-28,토요일+일요일+공휴일,00:00,00:00,00:00,00:00,,,,,,,,,,,,,,,,,,,,,,,,,,경기도 양주시청 위생과,031-8082-5292,2022-06-29,5590000,경기도 양주시
수성랜드,1,대구광역시,수성구,대구광역시 수성구 용학로 35-5(상동),대구광역시 수성구 상동 725,35.82683142,128.6128426,1,0,2021-05-01,2021-07-31,토요일+일요일,00:00,00:00,00:00,00:00,,,,,,,,,,,,,,,,,,,,,,,,,,대구광역시 수성구 식품위생과,053-666-2761,2022-07-01,3460000,대구광역시 수성구
경부선연곡졸음쉼터내영업허용장소,07,충청남도,천안시,,충청남도 천안시 서북구 입장면 연곡리 243-5,36.95431265,127.1830068,1,"최초6개월미부과,이후 6개월은 푸드트럭사업 사용료를 운영종료시 일할계산",2022-01-13,2023-01-12,연중무휴,08:00,19:00,08:00,19:00,08:00,19:00,08:00,19:00,08:00,19:00,08:00,19:00,08:00,19:00,08:00,19:00,08:00,19:00,08:00,19:00,08:00,19:00,08:00,19:00,08:00,19:00,08:00,19:00,주류,충청남도 천안시 서북구청 환경위생과,041-521-6323,2022-06-13,4490000,충청남도 천안시
아파트내 장터,99,충청남도,천안시,"충청남도 천안시 서북구 스마일시티2로 2 (차암동, e편한세상 스마일시티 2차)",충청남도 천안시 서북구 차암동 543 e편한세상 스마일시티 2차,36.84747368,127.1079324,3,사용료 미신고,2022-02-25,2022-08-16,월+화+수+금+토+일,09:00,20:00,09:00,20:00,09:00,20:00,09:00,20:00,09:00,20:00,09:00,20:00,09:00,20:00,09:00,20:00,09:00,20:00,09:00,20:00,,,,,,,,,주류,충청남도 천안시 서북구청 환경위생과,041-521-6323,2022-06-13,4490000,충청남도 천안시
아파트내 장터,99,충청남도,천안시,"충청남도 천안시 서북구 백석3로 69, 1층 (백석동, 주공그린빌11단지1차아파트)",충청남도 천안시 서북구 백석동 915 주공그린빌11단지1차아파트,36.82264997,127.1192674,4,사용료 미신고,2022-03-17,2024-02-09,월+화+수+금+토+일,09:00,19:00,09:00,19:00,09:00,19:00,09:00,19:00,09:00,19:00,09:00,19:00,09:00,19:00,09:00,19:00,09:00,19:00,09:00,19:00,09:00,19:00,09:00,19:00,09:00,19:00,09:00,19:00,주류,충청남도 천안시 서북구청 환경위생과,041-521-6323,2022-06-13,4490000,충청남도 천안시
아파트내 장터,99,충청남도,천안시,"충청남도 천안시 서북구 봉정로 381, 1층 (두정동, 주공아파트)",충청남도 천안시 서북구 두정동 527-2 주공아파트,36.83600092,127.1450076,1,사용료 미신고,2022-03-18,2023-03-17,월+화+목+금+토+일,09:00,20:00,09:00,20:00,09:00,20:00,09:00,20:00,09:00,20:00,09:00,20:00,09:00,20:00,09:00,20:00,09:00,20:00,09:00,20:00,09:00,20:00,09:00,20:00,09:00,20:00,09:00,20:00,주류,충청남도 천안시 서북구청 환경위생과,041-521-6323,2022-06-13,4490000,충청남도 천안시
대명리조트,01,충청남도,천안시,충청남도 천안시 동남구 성남면 종합휴양지로 200,충청남도 천안시 동남구 성남면 용원리 672,36.75731116,127.2240958,1,매출액의22,2018-07-02,2099-01-01,연중무휴,09:00,19:00,09:00,19:00,09:00,19:00,09:00,19:00,09:00,19:00,09:00,19:00,09:00,19:00,09:00,19:00,09:00,19:00,09:00,19:00,09:00,19:00,09:00,19:00,09:00,19:00,09:00,19:00,,충청남도 천안시 동남구청 환경위생과,041-521-4324,2022-06-13,4490000,충청남도 천안시
호서대학교,06,충청남도,천안시,충청남도 천안시 동남구 호서대길 12 호서대학교천안캠퍼스,충청남도 천안시 동남구 안서동 268 호서대학교천안캠퍼스,36.82711428,127.1829199,9,사용료 미신고,2022-05-24,2022-12-31,첫째 주+셋째 주 제외한 나머지 주,09:00,18:00,09:00,18:00,09:00,18:00,09:00,18:00,09:00,18:00,09:00,18:00,09:00,18:00,09:00,18:00,09:00,18:00,09:00,18:00,09:00,18:00,09:00,18:00,09:00,18:00,09:00,18:00,,충청남도 천안시 동남구청 환경위생과,041-521-4324,2022-06-13,4490000,충청남도 천안시
김대중컨벤션센터,8,광주광역시,서구,광주광역시 서구 상무누리로 30,광주광역시 서구 치평동 1159-2,35.14677706,126.8404805,,연 4200000원,2017-12-16,2022-12-31,연중무휴,10:00,19:00,10:00,19:00,,,,,,,,,,,,,,,,,,,,,,,,,주류,광주광역시 서구청,062-360-7322,2022-10-07,6290000,광주광역시
상무시민공원,4,광주광역시,서구,"광주광역시 서구 상무공원로 101(1층 치평동, 상무시민공원)",광주광역시 서구 치평동 1162,35.1533934,126.8410957,,확인불가,2017-05-09,2022-12-31,연중무휴,10:00,19:00,10:00,19:00,,,,,,,,,,,,,,,,,,,,,,,,,주류,광주광역시 서구청,062-360-7322,2022-10-07,6290000,광주광역시
풍암호수공원,4,광주광역시,서구,,광주광역시 서구 풍암동 491-3,,,,연 57000원,2017-05-09,2023-07-31,연중무휴,10:00,19:00,10:00,19:00,,,,,,,,,,,,,,,,,,,,,,,,,주류,광주광역시 서구청,062-360-7322,2022-10-07,6290000,광주광역시
벽진동503-3일원,8,광주광역시,서구,광주광역시 서구 벽진동,광주광역시 서구 벽진동 503-3,,,,확인불가,2016-06-15,2022-12-31,연중무휴,10:00,19:00,10:00,19:00,10:00,17:00,10:00,17:00,10:00,19:00,10:00,19:00,10:00,19:00,10:00,19:00,10:00,19:00,10:00,19:00,10:00,19:00,10:00,19:00,10:00,17:00,10:00,17:00,주류,광주광역시 서구청,062-360-7322,2022-10-07,6290000,광주광역시
팜랜드,1,경기도,안성시,경기도 안성시 공도읍 대신두길 28,경기도 안성시 공도읍 신두리 451,36.9920809,127.1944227,1,-,2015-05-29,2025-05-28,-,00:00,00:00,00:00,00:00,,,,,,,,,,,,,,,,,,,,,,,,,-,농업협동조합중앙회,031-8053-7952,2021-03-15,4080000,경기도 안성시
안성시종합운동장,3,경기도,안성시,경기도 안성시 보개면 종합운동장로 203,경기도 안성시 보개면 양복리 238-2,37.0147795,127.323606,1,-,2015-12-11,2025-12-10,-,00:00,00:00,00:00,00:00,,,,,,,,,,,,,,,,,,,,,,,,,-,안성시 시설관리공단,031-672-1234,2021-03-15,4080000,경기도 안성시
한경대,6,경기도,안성시,경기도 안성시 중앙로 327,경기도 안성시 석정동 63-1,37.01020238,127.2637664,1,-,2018-10-24,2021-10-23,-,00:00,00:00,00:00,00:00,,,,,,,,,,,,,,,,,,,,,,,,,,한경대,031-678-5734,2021-03-15,4080000,경기도 안성시
안성맞춤랜드,1,경기도,안성시,경기도 안성시 보개면 남사당로 198,경기도 안성시 보개면 복평리 303-3,37.03286562,127.3078038,1,-,2019-03-12,2019-08-30,-,00:00,00:00,00:00,00:00,,,,,,,,,,,,,,,,,,,,,,,,,,안성시 농업기술센터,031-678-5734,2021-03-15,4080000,경기도 안성시
한밭야구장,3,대전광역시,중구,"대전광역시 중구 대종로 373, 한밭야구장(부사동)",대전광역시 중구 부사동 209-1,36.3173370007,127.4280138234,4,10000000원,2020-04-17,2020-12-31,야구 비시즌,18:30,20:30,00:00,23:59,,,,,,,,,,,,,,,,,,,,,,,,,치킨 외,대전광역시 중구청 위생과,042-606-6106,2022-09-02,3650000,대전광역시 중구
오월드,1,대전광역시,중구,"대전광역시 중구 사정공원로 70, 대전동물원(사정동)",대전광역시 중구 사정동 142,36.2874992442,127.3985038951,4,0원,2022-05-20,2022-08-31,연중무휴,09:30,18:00,09:30,18:00,,,,,,,,,,,,,,,,,,,,,,,,,,대전광역시 중구청 위생과,042-606-6106,2022-09-02,3650000,대전광역시 중구
카페솔솔(청주흥덕시니어클럽),99,충청북도,흥덕구,충청북도 청주시 흥덕구 직지대로351번길 56,충청북도 청주시 흥덕구 향정동 30-8,,,,0,2021-06-02,2024-05-16,연중무휴,10:00,20:00,10:00,20:00,,,,,,,,,,,,,,,,,,,,,,,,,,충청북도 청주시 흥덕구청,043-201-1972,2022-08-18,5710000,충청북도 청주시
와우(WOW),99,충청북도,흥덕구,"충청북도 청주시 흥덕구 풍년로142번길 39, 1층 (가경동)",충청북도 청주시 흥덕구 가경동 415-9,,,,0,2021-08-23,2023-08-31,연중무휴,10:00,20:00,10:00,20:00,,,,,,,,,,,,,,,,,,,,,,,,,,충청북도 청주시 흥덕구청,043-201-1972,2022-08-18,5710000,충청북도 청주시
튼튼푸드랩,99,충청북도,흥덕구,충청북도 청주시 흥덕구 옥산면 오창제방길 165-5,충청북도 청주시 흥덕구 옥산면 남촌리 964,,,,0,2021-08-30,2029-12-31,연중무휴,10:00,20:00,10:00,20:00,,,,,,,,,,,,,,,,,,,,,,,,,,충청북도 청주시 흥덕구청,043-201-1972,2022-08-18,5710000,충청북도 청주시
잇와플 7호점,99,충청북도,흥덕구,충청북도 청주시 흥덕구 옥산면 오송가락로 1056 (청주리버파크자이),충청북도 청주시 흥덕구 옥산면 가락리 981 청주리버파크자이,,,,0,2021-10-27,2022-09-30,연중무휴,10:00,20:00,10:00,20:00,,,,,,,,,,,,,,,,,,,,,,,,,,충청북도 청주시 흥덕구청,043-201-1972,2022-08-18,5710000,충청북도 청주시
테헤란로83길,99,서울특별시,강남구,서울특별시 강남구 테헤란로83길 12,서울특별시 강남구 삼성동 158-5,37.50819572,127.0579438,1,1010570,2020-03-23,2022-12-31,연중무휴,11:30,22:00,11:30,22:00,11:30,22:00,11:30,22:00,11:30,22:00,11:30,22:00,11:30,22:00,11:30,22:00,11:30,22:00,11:30,22:00,11:30,22:00,11:30,22:00,11:30,22:00,11:30,22:00,,서울특별시 강남구청,02-3423-6532,2022-12-01,3220000,서울특별시 강남구
상록회관 뒷편,99,서울특별시,강남구,서울특별시 강남구 언주로 508,서울특별시 강남구 역삼동 701,37.50396606,127.0429099,3,4866510,2020-03-23,2022-12-31,연중무휴,11:30,22:00,11:30,22:00,11:30,22:00,11:30,22:00,11:30,22:00,11:30,22:00,11:30,22:00,11:30,22:00,11:30,22:00,11:30,22:00,11:30,22:00,11:30,22:00,11:30,22:00,11:30,22:00,,서울특별시 강남구청,02-3423-6532,2022-12-01,3220000,서울특별시 강남구
테헤란로202,99,서울특별시,강남구,서울특별시 강남구 테헤란로 202,서울특별시 강남구 역삼동 717,37.50041013,127.0379834,1,2203520,2020-03-23,2022-12-31,연중무휴,11:30,22:00,11:30,22:00,11:30,22:00,11:30,22:00,11:30,22:00,11:30,22:00,11:30,22:00,11:30,22:00,11:30,22:00,11:30,22:00,11:30,22:00,11:30,22:00,11:30,22:00,11:30,22:00,,서울특별시 강남구청,02-3423-6532,2022-12-01,3220000,서울특별시 강남구
테헤란로152,99,서울특별시,강남구,서울특별시 강남구 테헤란로 152,서울특별시 강남구 역삼동 737,37.50002424,127.0365086,1,2203520,2020-03-20,2022-12-31,연중무휴,11:30,22:00,11:30,22:00,11:30,22:00,11:30,22:00,11:30,22:00,11:30,22:00,11:30,22:00,11:30,22:00,11:30,22:00,11:30,22:00,11:30,22:00,11:30,22:00,11:30,22:00,11:30,22:00,,서울특별시 강남구청,02-3423-6532,2022-12-01,3220000,서울특별시 강남구
태정푸드,99,충청북도,청원구,충청북도 청주시 청원구 오창읍 오창공원로 96 (한신 더 휴 센트럴파크),충청북도 청주시 청원구 오창읍 각리 636-2 한신 더 휴 센트럴파크,,,,0,2021-08-26,2022-07-06,연중무휴,10:00,20:00,10:00,20:00,,,,,,,,,,,,,,,,,,,,,,,,,,충청북도 청주시 청원구청,043-201-1972,2022-08-18,5710000,충청북도 청주시
불티나닭강정,99,충청북도,청원구,충청북도 청주시 청원구 오창읍 중부로 760 (오창 롯데캐슬 더 하이스트),"충청북도 청주시 청원구 오창읍 양청리 810-2 오창 롯데캐슬 더 하이스트, 알뜰시장",,,,0,2022-06-03,2023-04-30,연중무휴,10:00,20:00,10:00,20:00,,,,,,,,,,,,,,,,,,,,,,,,,,충청북도 청주시 청원구청,043-201-1972,2022-08-18,5710000,충청북도 청주시
경인아라뱃길,5,인천광역시,계양구,,인천광역시 계양구 귤현동 396,,,,연592500원,2022-03-07,2024-03-06,연중무휴,10:00,21:00,10:00,21:00,,,,,,,,,,,,,,,,,,,,,,,,,,인천광역시 계양구,032-450-5426,2022-08-19,3550000,인천광역시 계양구
경인아라뱃길,5,인천광역시,계양구,,"인천광역시 계양구 평동 35-1, 34-8, 23-12",,,,연649000원,2022-03-07,2024-03-06,연중무휴,10:00,21:00,10:00,21:00,,,,,,,,,,,,,,,,,,,,,,,,,,인천광역시 계양구,032-450-5426,2022-08-19,3550000,인천광역시 계양구
경인아라뱃길,5,인천광역시,계양구,,인천광역시 계양구 평동 23-12,,,,연649000원,2022-03-07,2024-03-06,연중무휴,10:00,21:00,10:00,21:00,,,,,,,,,,,,,,,,,,,,,,,,,,인천광역시 계양구,032-450-5426,2022-08-19,3550000,인천광역시 계양구
북천 레일바이크 역사,99,경상남도,하동군,경상남도 하동군 북천면 경서대로 2446-4,,35.11344113,127.8928002,1,156400,2021-09-23,2023-11-30,연중무휴,09:00,18:00,09:00,18:00,09:00,18:00,09:00,18:00,09:00,18:00,09:00,18:00,09:00,18:00,09:00,18:00,09:00,18:00,09:00,18:00,09:00,18:00,09:00,18:00,09:00,18:00,09:00,18:00,주류,경상남도 하동군청,055-880-2355,2022-11-24,5440000,경상남도 하동군
고속도로 졸음쉼터,7,경기도,성남시 수정구,,경기도 성남시 수정구 수진동 산39-13,,,1,매출 대비 지불,2020-10-19,2022-10-18,연중무휴,08:00,19:00,08:00,19:00,08:00,19:00,08:00,19:00,08:00,19:00,08:00,19:00,08:00,19:00,08:00,19:00,08:00,19:00,08:00,19:00,08:00,19:00,08:00,19:00,08:00,19:00,08:00,19:00,,한국도로공사,02-2225-8425,2022-11-13,3780000,경기도 성남시
화진포관광지1,02,강원도,고성군,강원도 고성군 현내면 화진포길 412,강원도 고성군 현내면 초도리 94번지 2호,38.48138302,128.4356988,1,129800,2015-06-17,2021-07-10,연중무휴,09:00,18:00,09:00,18:00,09:00,18:00,09:00,18:00,09:00,18:00,09:00,18:00,09:00,18:00,09:00,18:00,09:00,18:00,09:00,18:00,09:00,18:00,09:00,18:00,09:00,18:00,09:00,18:00,,강원도 고성군보건소,033-680-3954,2022-12-01,4340000,강원도 고성군
화진포관광지2,02,강원도,고성군,강원도 고성군 거진읍 화진포길 280,강원도 고성군 거진읍 화포리 605번지,38.47250441,128.4430193,1,0,2015-10-27,2100-01-01,연중무휴,08:00,18:00,08:00,18:00,09:00,17:00,09:00,17:00,09:00,17:00,08:00,18:00,08:00,18:00,08:00,18:00,08:00,18:00,08:00,18:00,08:00,18:00,08:00,18:00,09:00,17:00,09:00,17:00,,강원도 고성군보건소,033-680-3954,2022-12-01,4340000,강원도 고성군
기타장소,99,강원도,고성군,강원도 고성군 간성읍 건봉사로 330,강원도 고성군 간성읍 해상리 645번지,38.38732545,128.4149483,1,0,2019-07-08,2100-01-01,연중무휴,11:00,21:00,11:00,21:00,11:00,21:00,11:00,21:00,11:00,21:00,11:00,21:00,11:00,21:00,11:00,21:00,11:00,21:00,11:00,21:00,11:00,21:00,11:00,21:00,11:00,21:00,11:00,21:00,,강원도 고성군보건소,033-680-3954,2022-12-01,4340000,강원도 고성군
봉포리 상상마당1,99,강원도,고성군,,강원도 고성군 토성면 봉포리 290번지 4호,38.2544524,128.5629057,1,0,2020-04-29,2100-01-01,연중무휴,11:00,21:00,11:00,21:00,11:00,21:00,11:00,21:00,11:00,21:00,11:00,21:00,11:00,21:00,11:00,21:00,11:00,21:00,11:00,21:00,11:00,21:00,11:00,21:00,11:00,21:00,11:00,21:00,,강원도 고성군보건소,033-680-3954,2022-12-01,4340000,강원도 고성군
봉포리 상상마당2,99,강원도,고성군,,강원도 고성군 토성면 봉포리 290번지 1호,38.2602593,128.5413953,1,0,2020-06-05,2100-01-01,연중무휴,11:00,21:00,11:00,21:00,11:00,21:00,11:00,21:00,11:00,21:00,11:00,21:00,11:00,21:00,11:00,21:00,11:00,21:00,11:00,21:00,11:00,21:00,11:00,21:00,11:00,21:00,11:00,21:00,,강원도 고성군보건소,033-680-3954,2022-12-01,4340000,강원도 고성군
봉포리 상상마당3,99,강원도,고성군,,강원도 고성군 토성면 봉포리 290번지 7호,38.2603941,128.5408803,1,0,2020-06-15,2100-01-01,연중무휴,11:00,21:00,11:00,21:00,11:00,21:00,11:00,21:00,11:00,21:00,11:00,21:00,11:00,21:00,11:00,21:00,11:00,21:00,11:00,21:00,11:00,21:00,11:00,21:00,11:00,21:00,11:00,21:00,,강원도 고성군보건소,033-680-3954,2022-12-01,4340000,강원도 고성군
경천섬푸드트럭ZONE,08,경상북도,상주시,,경상북도 상주시 도남동 산39-9,,,7,35110원,2022-12-01,2023-11-30,없음,10:00,18:00,10:00,18:00,10:00,18:00,10:00,18:00,10:00,20:00,10:00,20:00,10:00,20:00,10:00,20:00,10:00,20:00,10:00,20:00,10:00,20:00,10:00,20:00,10:00,18:00,10:00,18:00,,상주시청,054-537-5129,2022-11-22,5110000,경상북도 상주시
자연학습공원,4,경기도,의왕시,"경기도 의왕시 왕송못동로 307 (월암동, 자연학습공원 내)",경기도 의왕시 월암동 543번지 3호 자연학습공원 내,37.30710763,126.9531458,1,년 39930원,2016-07-07,2018-07-06,월요일+화요일+수요일+목요일+금요일,00:00,00:00,10:00,19:00,,,,,,,,,,,,,,,,,,,,,,,,,,경기도 의왕시,031-345-2821,2022-11-23,4030000,경기도 의왕시
자연학습공원,4,경기도,의왕시,"경기도 의왕시 왕송못동로 307 (월암동, 월암동 자연학습공원 내)",경기도 의왕시 월암동 543번지 3호 월암동 자연학습공원 내,37.30710763,126.9531458,1,년 39930원,2016-08-25,2018-08-16,월요일+화요일+수요일+목요일+금요일,00:00,00:00,10:00,19:00,,,,,,,,,,,,,,,,,,,,,,,,,,경기도 의왕시,031-345-2821,2022-11-23,4030000,경기도 의왕시
단원구노인복지관,08,경기도,안산시 단원구,"경기도 안산시 단원구 선부광장1로 134, 단원구노인복지관 주차장 좌측 일부 (선부동)",경기도 안산시 단원구 선부동 1077-9,37.33226854,126.8105841,,0,2018-03-09,2099-12-31,토+일+공휴일,09:00,18:00,00:00,00:00,,,,,,,,,,,,,,,,,,,,,,,,,,경기도 안산시 단원구청 환경위생과,031-481-6235,2022-12-20,3930000,경기도 안산시
여주종합운동장,03,경기도,여주시,경기도 여주시 영릉로 123,경기도 여주시 월송동 1,37.29303754,127.6229022,1,0,2016-04-01,2019-03-31,연중무휴,00:00,23:59,00:00,23:59,,,,,,,,,,,,,,,,,,,,,,,,,,경기도 여주시청,031-887-2654,2022-12-01,5700000,경기도 여주시
여주프리미엄아울렛,99,경기도,여주시,경기도 여주시 명품로 360,경기도 여주시 상거동 460,37.24594805,127.6123848,10,0,2018-06-01,2018-08-31,계약일,00:00,23:59,00:00,23:59,,,,,,,,,,,,,,,,,,,,,,,,,,경기도 여주시청,031-887-2654,2022-12-01,5700000,경기도 여주시
아파트내 장터,99,충청남도,천안시,충청남도 천안시 동남구 일봉로 20 성지새말2단지아파트,충청남도 천안시 동남구 신방동 874 성지새말2단지아파트,36.79253733,127.1306175,1,사용료 미신고,2022-05-23,2023-03-31,화+수+목+금+토+일,09:00,20:00,09:00,20:00,09:00,20:00,09:00,20:00,09:00,20:00,09:00,20:00,09:00,20:00,09:00,20:00,09:00,20:00,09:00,20:00,09:00,20:00,09:00,20:00,09:00,20:00,09:00,20:00,,충청남도 천안시 동남구청 환경위생과,041-521-4324,2022-06-13,4490000,충청남도 천안시
안중시장 고객센터 앞,99,경기도,평택시,,경기도 평택시 안중읍 안중리 267-5,36.987502,126.928444,1,연 273240원,2021-12-08,2022-12-07,연중무휴* 휴무시 사전 알림 (행사참여 등),10:00,20:00,10:00,20:00,,,,,,,,,,,,,,,,,,,,,,,,,,경기도 평택시,031-8024-2292,2022-06-02,3910000,경기도 평택시
서구문화회관,99,대구광역시,서구,대구광역시 서구 당산로 403,대구광역시 서구 이현동 48-144,35.87279161,128.545535,1,0,2018-03-12,2019-03-11,미공연 시,09:00,22:00,09:00,22:00,,,,,,,,,,,,,,,,,,,,,,,,,술,대구광역시 서구청,053-663-2774,2022-06-28,3430000,대구광역시 서구
황룡친수공원,04,광주광역시,광산구,,광주광역시 광산구 선암동 214-4,35.14456637,126.7791905,1,월 43520원,2020-06-10,2022-06-09,연중무휴,10:00,19:00,10:00,19:00,10:00,17:00,10:00,17:00,10:00,19:00,10:00,19:00,10:00,19:00,10:00,19:00,10:00,19:00,10:00,19:00,10:00,19:00,10:00,19:00,10:00,17:00,10:00,17:00,주류(음주행위제한),광주광역시 광산구청,062-960-8784,2022-06-15,3630000,광주광역시 광산구
관광지-푸드트럭 업소명:비발디푸드트럭,99,강원도,홍천군,강원도 홍천군 서면 한치골길 262 (대명비발디파크 셔틀버스주차장),강원도 홍천군 서면 팔봉리 1290-14,,,1,월 매출액의 22+비수기: 월 매출액의 21,2016-05-27,2021-05-31,비수기+우천시 휴무,10:00,17:00,10:00,22:00,10:00,17:00,10:00,17:00,10:00,17:00,10:00,17:00,10:00,17:00,10:00,17:00,10:00,17:00,10:00,17:00,10:00,17:00,10:00,17:00,10:00,17:00,10:00,17:00,,강원도 홍천군청,033-430-2654,2022-06-22,4250000,강원도 홍천군
개인사유지,99,경상남도,거창군,,경상남도 거창군 남하면 무릉리 975,35.6665583867,127.943758,1,0,2020-12-03,2023-11-11,연중무휴,09:00,16:30,09:00,18:00,09:00,16:30,09:00,16:30,09:00,16:30,09:00,17:30,09:00,17:30,09:00,17:30,09:00,17:30,09:00,17:30,09:00,17:30,09:00,17:30,09:00,16:30,09:00,16:30,해당사항 없음.,경상남도 거창군,055-940-3335,2022-06-01,5470000,경상남도 거창군
부천종합운동장,3,경기도,부천시,경기도 부천시 소사로 482,,37.50256698,126.7990239,1,연 363000원,2019-11-01,2022-10-31,연중무휴,10:00,19:00,10:00,19:00,,,,,,,,,,,,,,,,,,,,,,,,,,부천도시공사,032-340-0871,2022-06-02,3860000,경기도 부천시
영동선 소초 졸음쉼터(인천방향),7,강원도,원주시,강원도 원주시 소초면 평장리 산 125-8,강원도 원주시 소초면 평장리 산 125-8,37.4202505673,128.0014746974,1,0,2022-02-11,2023-02-10,연중무휴,08:00,19:00,08:00,19:00,,,,,,,,,,,,,,,,,,,,,,,,,,한국도로공사 강원본부,033-811-6057,2022-05-26,4190000,강원도 원주시
대덕구노인종합복지회관,8,대전광역시,대덕구,대전광역시 대덕구 계족로740번길 80 (읍내동),,36.37825836,127.4314387,,0,2020-02-06,2020-12-31,토요일+일요일+공휴일,10:30,14:30,00:00,00:00,,,,,,,,,,,,,,,,,,,,,,,,,,대전광역시 대덕구,042-608-6894,2022-06-07,3680000,대전광역시 대덕구
신대노인종합복지관,8,대전광역시,대덕구,대전광역시 대덕구 회덕로22번길 5 (신대동),,36.39875041,127.4204582,,0,2020-02-06,2020-12-31,토요일+일요일+공휴일,10:30,14:30,00:00,00:00,,,,,,,,,,,,,,,,,,,,,,,,,,대전광역시 대덕구,042-608-6894,2022-06-07,3680000,대전광역시 대덕구
신탄진 졸음쉼터,7,대전광역시,대덕구,,대전광역시 대덕구 상서동 산 66-11,,,,0,2020-04-01,2021-03-31,연중무휴,08:00,19:00,08:00,19:00,,,,,,,,,,,,,,,,,,,,,,,,,,대전광역시 대덕구,042-608-6894,2022-06-07,3680000,대전광역시 대덕구
봉수산자연휴양림(수목원) 주차장,2,충청남도,예산군,충청남도 예산군 대흥면 임존성길 153,충청남도 예산군 대흥면 상중리 470-7,36.59844872,126.7808937,,0,2019-06-17,2099-12-31,연중무휴,00:00,23:59,00:00,23:59,,,,,,,,,,,,,,,,,,,,,,,,,,충청남도 예산군,041-339-7482,2022-05-24,4610000,충청남도 예산군
예산황새공원 주차장,2,충청남도,예산군,충청남도 예산군 광시면 시목대리길 62-19,충청남도 예산군 광시면 대리 312-15,36.5426278,126.8022435,,0,2019-06-17,2099-12-31,연중무휴,00:00,23:59,00:00,23:59,,,,,,,,,,,,,,,,,,,,,,,,,,충청남도 예산군,041-339-7482,2022-05-24,4610000,충청남도 예산군
삼성현역사문화공원,1,경상북도,경산시,경상북도 경산시 남산면 삼성현공원로 59,,35.80168834,128.7966117,1,"1년 50,000원",2019-10-27,2023-10-26,"주말, 휴일 주로 운영 평일은 행시간 위주 운영",11:00,19:00,11:00,19:00,11:00,19:00,11:00,19:00,11:00,19:00,11:00,19:00,11:00,19:00,11:00,19:00,11:00,19:00,11:00,19:00,11:00,19:00,11:00,19:00,11:00,19:00,11:00,19:00,,경상북도 경산시 식품의약과,053-810-6336,2022-06-13,5130000,경상북도 경산시
용성면 미산리 187-5,99,경상북도,경산시,,경상북도 경산시 용성면 미산리 187-5,,,1,"1달 100,000원",2021-08-17,2026-08-17,1개월 내 3~4일 비정기적 휴무,11:00,22:00,11:00,22:00,11:00,22:00,11:00,22:00,11:00,22:00,11:00,22:00,11:00,22:00,11:00,22:00,11:00,22:00,11:00,22:00,11:00,22:00,11:00,22:00,11:00,22:00,11:00,22:00,,경상북도 경산시 식품의약과,053-810-6336,2022-06-13,5130000,경상북도 경산시
양서친환경도서관 앞,8,경기도,양평군,,경기도 양평군 양서면 용담리 535-15,37.54200043,127.3233014,1,연 87410원,2017-08-01,2027-02-28,연중무휴,00:00,23:59,00:00,23:59,10:30,20:00,10:30,20:00,10:30,20:00,10:30,20:00,10:30,20:00,,,,,,,,,,,,,,,,경기도 양평군청,031-770-2625,2022-06-02,4170000,경기도 양평군
인제군농특산물전시판매장 주차장,99,강원도,인제군,강원도 인제군 인제읍 비봉로 48,강원도 인제군 인제읍 상동리 430,38.06526797,128.1744703,2,공시지가(원) × 면적 × 1(년) × 0.05,2018-05-23,2023-05-09,연중무휴,09:00,20:00,09:00,20:00,,,,,,,,,,,,,,,,,,,,,,,,,주류,강원도 인제군청,033-460-2514,2022-06-07,4330000,강원도 인제군
사랑을 볶는 카페,4,경상남도,사천시,경상남도 사천시 용현면 석양길 500,경상남도 사천시 용현면 금문리 367-6,35.00937643,128.0472846,1,0,2016-09-22,2022-09-21,공휴일,09:00,20:00,09:00,20:00,09:00,20:00,09:00,20:00,09:00,20:00,09:00,20:00,09:00,20:00,09:00,20:00,09:00,20:00,09:00,20:00,09:00,20:00,09:00,20:00,09:00,20:00,09:00,20:00,,경상남도 사천시청,055-831-3619,2022-05-25,5340000,경상남도 사천시
뉴욕타이거푸드카페,4,경상남도,사천시,"경상남도 사천시 사천대로 17 (대방동, 삼천포대교공원)",경상남도 사천시 대방동 681 삼천표대교공원,34.93229419,128.0523348,1,0,2016-10-14,2023-10-14,공휴일,09:00,20:00,09:00,20:00,09:00,20:00,09:00,20:00,09:00,20:00,09:00,20:00,09:00,20:00,09:00,20:00,09:00,20:00,09:00,20:00,09:00,20:00,09:00,20:00,09:00,20:00,09:00,20:00,,경상남도 사천시청,055-831-3619,2022-05-25,5340000,경상남도 사천시
우리가족,4,경상남도,사천시,"경상남도 사천시 사천대로 17 (대방동, 삼천포대교공원)",경상남도 사천시 대방동 681 삼천표대교공원,34.93229419,128.0523348,1,0,2016-10-14,2023-10-14,공휴일,09:00,20:00,09:00,20:00,09:00,20:00,09:00,20:00,09:00,20:00,09:00,20:00,09:00,20:00,09:00,20:00,09:00,20:00,09:00,20:00,09:00,20:00,09:00,20:00,09:00,20:00,09:00,20:00,,경상남도 사천시청,055-831-3619,2022-05-25,5340000,경상남도 사천시
사천대교왕씨앗호떡,4,경상남도,사천시,"경상남도 사천시 서포면 자구로 5, 사천대교공원 내",경상남도 사천시 서포면 자혜리 산 23-20,,,1,0,2017-06-05,2022-12-31,공휴일,09:00,20:00,09:00,20:00,09:00,20:00,09:00,20:00,09:00,20:00,09:00,20:00,09:00,20:00,09:00,20:00,09:00,20:00,09:00,20:00,09:00,20:00,09:00,20:00,09:00,20:00,09:00,20:00,,경상남도 사천시청,055-831-3619,2022-05-25,5340000,경상남도 사천시
아일랜드캐슬 워터파크,1,경기도,의정부시,경기도 의정부시 장곡로 22,경기도 의정부시 장암동 135,37.70699311,127.0533851,,0,2019-08-01,2023-06-30,1월~5월+9월~12월,10:00,18:00,10:00,18:00,00:00,00:00,00:00,00:00,00:00,00:00,00:00,00:00,00:00,00:00,10:00,18:00,10:00,18:00,10:00,18:00,00:00,00:00,00:00,00:00,00:00,00:00,00:00,00:00,스낵류,경기도 의정부시청,031-828-2944,2022-05-31,3820000,경기도 의정부시
충주어울림센터,99,충청북도,충주시,충청북도 충주시 도장관주로 34-12(호암동),,36.95051503,127.921602,1,0,2019-11-27,2024-11-26,일정하지않음,10:00,18:00,10:00,18:00,10:00,18:00,10:00,18:00,10:00,18:00,10:00,18:00,10:00,18:00,10:00,18:00,10:00,18:00,10:00,18:00,10:00,18:00,10:00,18:00,10:00,18:00,10:00,18:00,주류,충청북도 충주시 위생과,043-850-3472,2022-05-31,4390000,충청북도 충주시
곡성세계장미축제장,2,전라남도,곡성군,전라남도 곡성군오곡면 기차마을로 232,,35.27753265,127.3082865,,"일 20,000원",2020-05-22,2020-06-07,연중무휴,09:00,18:00,09:00,18:00,,,,,,,,,,,,,,,,,,,,,,,,,,곡성군청,061-360-8635,2021-09-07,4860000,전라남도 곡성군
곡성심청축제장,2,전라남도,곡성군,전라남도 곡성군오곡면 기차마을로 232,,35.27753265,127.3082865,,0,2019-10-03,2019-10-06,연중무휴,09:00,18:00,09:00,18:00,,,,,,,,,,,,,,,,,,,,,,,,,,곡성군청,061-360-8635,2021-09-07,4860000,전라남도 곡성군
함평공영주차장 내(현재 미운영),2,전라남도,함평군,전라남도 함평군 함평읍 기각리 994-12,전라남도 함평군 함평읍 기각리 994-12,,,1,"연161,920원",2016-12-16,2018-12-15,미운영,00:00,00:00,00:00,00:00,,,,,,,,,,,,,,,,,,,,,,,,,,함평군,061-320-1644,2021-09-25,4960000,전라남도 함평군
남광주시장,99,광주광역시,동구,광주광역시 동구 제봉로7,광주광역시 동구 학동55,35.1389375,126.9218722,0,0,2016-09-09,2022-12-31,월+화+수+목,18:00,23:00,18:00,23:00,18:00,23:00,18:00,23:00,18:00,23:00,18:00,23:00,18:00,23:00,18:00,23:00,18:00,23:00,18:00,23:00,18:00,23:00,18:00,23:00,18:00,23:00,18:00,23:00,주류,광주광역시 동구청,062-608-2463,2022-09-05,3590000,광주광역시 동구
아시아문화전당,1,광주광역시,동구,광주광역시 동구 문화전당로38,광주광역시 동구 광산동 13,35.14691559,126.9199945,10,0,2017-08-24,2022-12-31,월+화+수+목,17:00,21:00,17:00,21:00,17:00,21:00,17:00,21:00,17:00,21:00,17:00,21:00,17:00,21:00,17:00,21:00,17:00,21:00,17:00,21:00,17:00,21:00,17:00,21:00,17:00,21:00,17:00,21:00,주류,광주광역시 동구청,062-608-2463,2022-09-05,3590000,광주광역시 동구
푸드트럭존,5,경상북도,영덕군,,경상북도 영덕군 축산면 축산리 944-7,,,1,월 10100원,2021-08-31,2023-08-30,연중무휴,09:00,18:00,09:00,20:00,09:00,17:00,09:00,17:00,09:00,18:00,09:00,18:00,09:00,18:00,09:00,19:00,09:00,19:00,09:00,19:00,09:00,19:00,09:00,18:00,09:00,18:00,09:00,18:00,주류,경상북도 영덕군청,054-730-6172,2022-08-25,5180000,경상북도 영덕군
푸드트럭존,5,경상북도,영덕군,,경상북도 영덕군 축산면 축산리 944-7,,,1,월 10100원,2021-11-06,2023-11-05,연중무휴,09:00,18:00,09:00,20:00,09:00,17:00,09:00,17:00,09:00,18:00,09:00,18:00,09:00,18:00,09:00,19:00,09:00,19:00,09:00,19:00,09:00,19:00,09:00,18:00,09:00,18:00,09:00,18:00,주류,경상북도 영덕군청,054-730-6172,2022-08-25,5180000,경상북도 영덕군
푸드트럭존,99,경상북도,영덕군,,경상북도 영덕군 영덕읍 창포리 113-1,,,1,월 47000원,2021-09-14,2023-09-13,연중무휴,09:00,18:00,09:00,20:00,09:00,17:00,09:00,17:00,09:00,18:00,09:00,18:00,09:00,18:00,09:00,19:00,09:00,19:00,09:00,19:00,09:00,19:00,09:00,18:00,09:00,18:00,09:00,18:00,주류,경상북도 영덕군청,054-730-6172,2022-08-25,5180000,경상북도 영덕군
푸드트럭존,99,경상북도,영덕군,,경상북도 영덕군 영덕읍 창포리 328-1,,,1,월 173910원,2021-11-29,2023-09-13,연중무휴,09:00,18:00,09:00,20:00,09:00,17:00,09:00,17:00,09:00,18:00,09:00,18:00,09:00,18:00,09:00,19:00,09:00,19:00,09:00,19:00,09:00,19:00,09:00,18:00,09:00,18:00,09:00,18:00,주류,경상북도 영덕군청,054-730-6172,2022-08-25,5180000,경상북도 영덕군
한강신도시 호수공원,4,경기도,김포시,경기도 김포시 김포한강8로 302,경기도 김포시 마산동 617-2,37.64518843,126.6350124,1,월18984원,2019-09-20,2021-09-19,연중무휴,12:00,20:00,11:00,21:00,,,,,,,,,,,,,,,,,,,,,,,,,주류,경기도 김포시청,031-980-2238,2022-09-16,4090000,경기도 김포시
서울외곽고속도로 김포TG내측 졸음쉼터,7,경기도,김포시,경기도 김포시 김포대로319번길 209-23,경기도 김포시 고촌읍 신곡리 756-3,37.59225829,126.7683869,1,월110000원,2022-05-23,2023-05-22,연중무휴,07:00,20:00,07:00,20:00,,,,,,,,,,,,,,,,,,,,,,,,,주류,경기도 김포시청,031-980-2238,2022-09-16,4090000,경기도 김포시
드롭탑 오송역 언더패스점,99,충청북도,흥덕구,충청북도 청주시 흥덕구 오송읍 오송리 15-4,충청북도 청주시 흥덕구 오송읍 오송리 15-4,,,,0,2020-07-24,2025-03-31,연중무휴,10:00,20:00,10:00,20:00,,,,,,,,,,,,,,,,,,,,,,,,,,충청북도 청주시 흥덕구청,043-201-1972,2022-08-18,5710000,충청북도 청주시
교보타워이면도로,99,서울특별시,서초구,서울특별시 서초구 강남대로69길 8,서울특별시 서초구 서초동 1309-8,37.50184446,127.0246534,1,749500,2017-01-01,2022-12-31,연중무휴,12:00,23:00,12:00,23:00,12:00,23:00,12:00,23:00,12:00,23:00,12:00,23:00,12:00,23:00,12:00,23:00,12:00,23:00,12:00,23:00,12:00,23:00,12:00,23:00,12:00,23:00,12:00,23:00,,서울특별시 서초구,02-2155-6954,2022-11-25,3210000,서울특별시 서초구
반포쇼핑타운4동,99,서울특별시,서초구,서울특별시 서초구 신반포로 189,서울특별시 서초구 잠원동 69-2,37.5065454,127.004826,2,320850,2017-01-01,2022-12-31,연중무휴,12:00,23:00,12:00,23:00,12:00,23:00,12:00,23:00,12:00,23:00,12:00,23:00,12:00,23:00,12:00,23:00,12:00,23:00,12:00,23:00,12:00,23:00,12:00,23:00,12:00,23:00,12:00,23:00,,서울특별시 서초구,02-2155-6954,2022-11-25,3210000,서울특별시 서초구
남부터미널,99,서울특별시,서초구,서울특별시 서초구 효령로 292,서울특별시 서초구 서초동 1446-1,37.48354661,127.0151109,1,354300,2017-01-01,2022-12-31,연중무휴,12:00,23:00,12:00,23:00,12:00,23:00,12:00,23:00,12:00,23:00,12:00,23:00,12:00,23:00,12:00,23:00,12:00,23:00,12:00,23:00,12:00,23:00,12:00,23:00,12:00,23:00,12:00,23:00,,서울특별시 서초구,02-2155-6954,2022-11-25,3210000,서울특별시 서초구
반포쇼핑타운2동,99,서울특별시,서초구,서울특별시 서초구 신반포로 165,서울특별시 서초구 잠원동 75-15,37.5057134,127.002152,1,343700,2021-06-01,2022-12-31,연중무휴,12:00,23:00,12:00,23:00,12:00,23:00,12:00,23:00,12:00,23:00,12:00,23:00,12:00,23:00,12:00,23:00,12:00,23:00,12:00,23:00,12:00,23:00,12:00,23:00,12:00,23:00,12:00,23:00,,서울특별시 서초구,02-2155-6954,2022-11-25,3210000,서울특별시 서초구
엑스포시민광장,4,대전광역시,서구,대전광역시 서구 둔산대로 169,대전광역시 서구 만년동 396,36.36646857,127.3880154,4,0,2017-12-15,2018-02-18,연중무휴,10:00,20:00,10:00,20:00,10:00,20:00,10:00,20:00,10:00,20:00,10:00,20:00,10:00,20:00,10:00,20:00,10:00,20:00,10:00,20:00,10:00,20:00,10:00,20:00,10:00,20:00,10:00,20:00,,대전광역시 서구 위생과,042-288-3334,2022-05-17,3660000,대전광역시 서구
강진오감통,99,전라남도,강진군,전라남도 강진군 강진읍 오감길 2,,34.63914516,126.7735554,0,0,2018-10-01,2021-09-30,연중무휴,00:00,23:59,00:00,23:59,00:00,23:59,00:00,23:59,00:00,23:59,00:00,23:59,00:00,23:59,00:00,23:59,00:00,23:59,00:00,23:59,00:00,23:59,00:00,23:59,00:00,23:59,00:00,23:59,,전라남도 강진군청,061-430-3362,2022-05-04,4920000,전라남도 강진군
고려청자박물관,99,전라남도,강진군,전라남도 강진군 대구면 청자촌길 33,,34.50866203,126.8008374,0,0,2018-10-01,2021-09-30,연중무휴,00:00,23:59,00:00,23:59,00:00,23:59,00:00,23:59,00:00,23:59,00:00,23:59,00:00,23:59,00:00,23:59,00:00,23:59,00:00,23:59,00:00,23:59,00:00,23:59,00:00,23:59,00:00,23:59,,전라남도 강진군청,061-430-3732,2022-05-04,4920000,전라남도 강진군
시문학파기념관,99,전라남도,강진군,전라남도 강진군 강진읍 영랑생가길 14,,34.642288,126.7659603,0,0,2018-10-01,2021-09-30,연중무휴,00:00,23:59,00:00,23:59,00:00,23:59,00:00,23:59,00:00,23:59,00:00,23:59,00:00,23:59,00:00,23:59,00:00,23:59,00:00,23:59,00:00,23:59,00:00,23:59,00:00,23:59,00:00,23:59,,전라남도 강진군청,061-430-3372,2022-05-04,4920000,전라남도 강진군
다산박물관,99,전라남도,강진군,전라남도 강진군 도암면 다산로 766-20,,34.57641194,126.7499561,0,0,2018-10-01,2021-09-30,연중무휴,00:00,23:59,00:00,23:59,00:00,23:59,00:00,23:59,00:00,23:59,00:00,23:59,00:00,23:59,00:00,23:59,00:00,23:59,00:00,23:59,00:00,23:59,00:00,23:59,00:00,23:59,00:00,23:59,,전라남도 강진군청,061-430-3912,2022-05-04,4920000,전라남도 강진군
강진군도서관,99,전라남도,강진군,전라남도 강진군 강진읍 남문길 10,,34.6405087,126.7697201,0,0,2018-10-01,2021-09-30,연중무휴,00:00,23:59,00:00,23:59,00:00,23:59,00:00,23:59,00:00,23:59,00:00,23:59,00:00,23:59,00:00,23:59,00:00,23:59,00:00,23:59,00:00,23:59,00:00,23:59,00:00,23:59,00:00,23:59,,전라남도 강진군청,061-430-3832,2022-05-04,4920000,전라남도 강진군
강진군아트홀,99,전라남도,강진군,전라남도 강진군 강진읍 영랑로1길 9,,34.63817527,126.7704992,0,0,2018-10-01,2021-09-30,연중무휴,00:00,23:59,00:00,23:59,00:00,23:59,00:00,23:59,00:00,23:59,00:00,23:59,00:00,23:59,00:00,23:59,00:00,23:59,00:00,23:59,00:00,23:59,00:00,23:59,00:00,23:59,00:00,23:59,,전라남도 강진군청,061-430-3972,2022-05-04,4920000,전라남도 강진군
앵강소공원내,8,경상남도,남해군,경상남도 남해군 이동면 남해대로 1856-3,경상남도 남해군 이동면 무림리 1798,34.78432799,127.9613395,1,년 6970원,2016-11-10,2022-11-24,연중무휴,10:00,18:00,10:00,18:00,10:00,18:00,10:00,18:00,10:00,18:00,10:00,18:00,10:00,18:00,10:00,18:00,10:00,18:00,10:00,18:00,10:00,18:00,10:00,18:00,10:00,18:00,10:00,18:00,주류,남해군 보건소,055-860-3242,2022-03-29,5430000,경상남도 남해군
송정해수욕장 주차장,8,경상남도,남해군,,경상남도 남해군 미조면 송정리1131,34.7235513,128.0249358,1,0,2016-12-23,2022-12-30,연중무휴,10:00,18:00,10:00,18:00,10:00,18:00,10:00,18:00,10:00,18:00,10:00,18:00,10:00,18:00,10:00,18:00,10:00,18:00,10:00,18:00,10:00,18:00,10:00,18:00,10:00,18:00,10:00,18:00,주류,남해군 보건소,055-860-3242,2022-03-29,5430000,경상남도 남해군
남해유배문학관,8,경상남도,남해군,경상남도 남해군 남해읍 남해대로 2745,경상남도 남해군 남해읍 남변리 555,34.83195528,127.8991855,1,년 93550원,2017-06-07,2023-06-13,연중무휴,10:00,18:00,10:00,18:00,10:00,18:00,10:00,18:00,10:00,18:00,10:00,18:00,10:00,18:00,10:00,18:00,10:00,18:00,10:00,18:00,10:00,18:00,10:00,18:00,10:00,18:00,10:00,18:00,주류,남해군 보건소,055-860-3242,2022-03-29,5430000,경상남도 남해군
경상남도수산기술사업소 남해사무소,8,경상남도,남해군,,경상남도 남해군 삼동면 금송리 1342-32,34.82976877,128.0082644,,0,2020-01-01,2099-12-31,연중무휴,10:00,18:00,10:00,18:00,10:00,18:00,10:00,18:00,10:00,18:00,10:00,18:00,10:00,18:00,10:00,18:00,10:00,18:00,10:00,18:00,10:00,18:00,10:00,18:00,10:00,18:00,10:00,18:00,주류,남해군 보건소,055-860-3244,2022-03-29,5430000,경상남도 남해군
남양주체육문화센터 푸드트럭존,3,경기도,남양주시,경기도 남양주시 다산지금로 91,경기도 남양주시 이패동 산87,37.60592685,127.1777885,1,0,2018-08-01,2020-12-31,연중무휴,00:00,12:00,00:00,12:00,,,,,,,,,,,,,,,,,,,,,,,,,주류,경기도 남양주시청,031-590-3979,2022-03-31,3990000,경기도 남양주시
경인아라뱃길 시천교,5,인천광역시,서구,,인천광역시 서구 시천동 159-1,,,4,"연 630,500원",2019-01-04,2021-01-03,연중무휴,10:00,22:00,10:00,22:00,10:00,20:00,10:00,20:00,10:00,22:00,10:00,22:00,10:00,22:00,10:00,22:00,10:00,22:00,10:00,22:00,10:00,22:00,10:00,22:00,10:00,20:00,10:00,20:00,주류,한국수자원공사 인천김포권지사,032-590-2252,2021-07-28,3560000,인천광역시 서구
안산자락길 숲속카페,99,서울특별시,서대문구,,서울특별시 서대문구 현저동 107-399,,,1,무상,2020-03-20,2021-02-28,일요일 ~ 수요일,00:00,00:00,00:00,00:00,09:30,,,,,,,,,,,,,,,,,,,,,,,,주류,서대문구청 보건위생과,02-330-8951,2020-01-01,3120000,서울특별시 서대문구
의좋은형제공원 주차장,2,충청남도,예산군,충청남도 예산군 대흥면 예당로 885,충청남도 예산군 대흥면 동서리 384-11,36.60826625,126.7918293,,0,2017-03-15,2099-12-31,연중무휴,00:00,23:59,00:00,23:59,,,,,,,,,,,,,,,,,,,,,,,,,,충청남도 예산군,041-339-7482,2022-05-24,4610000,충청남도 예산군
사적지 제229호 충의사 주차장,2,충청남도,예산군,,충청남도 예산군 덕산면 시량리 119-1,36.68653715,126.651381,,0,2017-03-15,2099-12-31,연중무휴,00:00,23:59,00:00,23:59,,,,,,,,,,,,,,,,,,,,,,,,,,충청남도 예산군,041-339-7482,2022-05-24,4610000,충청남도 예산군
유형문화재 제43호 추사고택 주차장,2,충청남도,예산군,충청남도 예산군 신암면 추사고택로 261,충청남도 예산군 신암면 용궁리 904,36.74693565,126.7984593,,0,2017-03-15,2099-12-31,연중무휴,00:00,23:59,00:00,23:59,,,,,,,,,,,,,,,,,,,,,,,,,,충청남도 예산군,041-339-7482,2022-05-24,4610000,충청남도 예산군
예당관광지 주차장,2,충청남도,예산군,,충청남도 예산군 응봉면 후사리 448-1,,,,0,2017-03-15,2099-12-31,연중무휴,00:00,23:59,00:00,23:59,,,,,,,,,,,,,,,,,,,,,,,,,,충청남도 예산군,041-339-7482,2022-05-24,4610000,충청남도 예산군
덕산도립공원 수덕사 주차장,4,충청남도,예산군,,충청남도 예산군 덕산면 사천리 25-36,36.65581805,126.6207305,,0,2017-03-15,2099-12-31,연중무휴,00:00,23:59,00:00,23:59,,,,,,,,,,,,,,,,,,,,,,,,,,충청남도 예산군,041-339-7482,2022-05-24,4610000,충청남도 예산군
무한천체육공원 주차장,4,충청남도,예산군,,충청남도 예산군 예산읍 산성리 435-2,,,,0,2017-03-15,2099-12-31,연중무휴,00:00,23:59,00:00,23:59,,,,,,,,,,,,,,,,,,,,,,,,,,충청남도 예산군,041-339-7482,2022-05-24,4610000,충청남도 예산군
국립공주대학교 산업과학대학 주차장,6,충청남도,예산군,충청남도 예산군 예산읍 대학로 54,충청남도 예산군 예산읍 대회리 1,36.66988834,126.8594141,,0,2017-03-15,2099-12-31,연중무휴,00:00,23:59,00:00,23:59,,,,,,,,,,,,,,,,,,,,,,,,,,충청남도 예산군,041-339-7482,2022-05-24,4610000,충청남도 예산군
영남이공대학교 기계공학관 맞은편 공터,6,대구광역시,남구,대구광역시 남구 현충로 170,대구광역시 남구 대명동 317-1,35.84767574,128.5841726,0,0,2018-03-02,2018-12-15,연중무휴,11:00,14:00,00:00,00:00,,,,,11:00,14:00,11:00,14:00,11:00,14:00,11:00,14:00,,,11:00,14:00,11:00,14:00,11:00,14:00,11:00,14:00,11:00,14:00,,대구광역시 남구청,053-664-2764,2022-05-20,3440000,대구광역시 남구
대덕문화전당,8,대구광역시,남구,"대구광역시 남구 앞산순환로 478, 대덕문화전당",대구광역시 남구 대명동 산 201-4 대덕문화전당,35.831309,128.5770162,0,0,2019-05-05,2019-05-05,연중무휴,11:00,14:00,00:00,00:00,,,,,,,,,11:00,14:00,,,,,,,,,,,,,,,,대구광역시 남구청,053-664-2764,2022-05-20,3440000,대구광역시 남구
소정탕수육,99,충청북도,흥덕구,충청북도 청주시 흥덕구 옥산면 오송가락로 1056 (청주리버파크자이),충청북도 청주시 흥덕구 옥산면 가락리 981 청주리버파크자이,,,,0,2021-12-02,2022-09-30,연중무휴,10:00,20:00,10:00,20:00,,,,,,,,,,,,,,,,,,,,,,,,,,충청북도 청주시 흥덕구청,043-201-1972,2022-08-18,5710000,충청북도 청주시
플레이팜,99,충청북도,흥덕구,"충청북도 청주시 흥덕구 강내면 청주역로 213-52, 한국잠사박물관 내",충청북도 청주시 흥덕구 강내면 학천리 175,,,,0,2022-03-22,2025-12-31,연중무휴,10:00,20:00,10:00,20:00,,,,,,,,,,,,,,,,,,,,,,,,,,충청북도 청주시 흥덕구청,043-201-1972,2022-08-18,5710000,충청북도 청주시
바로곱창,99,충청북도,흥덕구,"충청북도 청주시 흥덕구 송화로214번길 7 (송절동, 청주테크노폴리스푸르지오)",충청북도 청주시 흥덕구 송절동 851 청주테크노폴리스푸르지오,,,,0,2022-06-16,2023-05-10,연중무휴,10:00,20:00,10:00,20:00,,,,,,,,,,,,,,,,,,,,,,,,,,충청북도 청주시 흥덕구청,043-201-1972,2022-08-18,5710000,충청북도 청주시
주주(JuJu) 찹쌀도너츠,99,충청북도,흥덕구,"충청북도 청주시 흥덕구 송화로214번길 7 (송절동, 청주테크노폴리스푸르지오)",충청북도 청주시 흥덕구 송절동 851 청주테크노폴리스푸르지오,,,,0,2022-06-27,2023-05-10,연중무휴,10:00,20:00,10:00,20:00,,,,,,,,,,,,,,,,,,,,,,,,,,충청북도 청주시 흥덕구청,043-201-1972,2022-08-18,5710000,충청북도 청주시
커피친구들,99,충청북도,청원구,충청북도 청주시 청원구 오창읍 미래지로 68,충청북도 청주시 청원구 오창읍 용두리 1 외 18필지(청원생명축제장),,,,0,2017-09-11,2017-10-22,연중무휴,10:00,20:00,10:00,20:00,,,,,,,,,,,,,,,,,,,,,,,,,,충청북도 청주시 청원구청,043-201-1972,2022-08-18,5710000,충청북도 청주시
성수푸드,99,충청북도,청원구,충청북도 청주시 청원구 오창읍 미래지로 68,충청북도 청주시 청원구 오창읍 용두리 1 18필지(2017청원생명축제장),,,,0,2017-09-20,2017-10-01,연중무휴,10:00,20:00,10:00,20:00,,,,,,,,,,,,,,,,,,,,,,,,,,충청북도 청주시 청원구청,043-201-1972,2022-08-18,5710000,충청북도 청주시
노란푸드,99,충청북도,청원구,충청북도 청주시 청원구 내수읍 초정리 59 외 25필지 세종대왕과초정약수축제,충청북도 청주시 청원구 내수읍 초정리 59 외 25필지 세종대왕과초정약수축제,,,,0,2018-05-24,2018-05-27,연중무휴,10:00,20:00,10:00,20:00,,,,,,,,,,,,,,,,,,,,,,,,,,충청북도 청주시 청원구청,043-201-1972,2022-08-18,5710000,충청북도 청주시
다코아찌,99,충청북도,청원구,"충청북도 청주시 청원구 오창읍 가곡길 46, 충청북도 농업기술원 1층",충청북도 청주시 청원구 오창읍 괴정리 383 충청북도 농업기술원,,,,0,2018-05-28,2018-06-05,연중무휴,10:00,20:00,10:00,20:00,,,,,,,,,,,,,,,,,,,,,,,,,,충청북도 청주시 청원구청,043-201-1972,2022-08-18,5710000,충청북도 청주시
마피아 츄러스,99,충청북도,청원구,"충청북도 청주시 청원구 대성로 298, 청주대학교 대운동장 (2018 중국인유학생페스티벌) (내덕동)",충청북도 청주시 청원구 내덕동 36 청주대학교,,,,0,2018-09-14,2018-09-16,연중무휴,10:00,20:00,10:00,20:00,,,,,,,,,,,,,,,,,,,,,,,,,,충청북도 청주시 청원구청,043-201-1972,2022-08-18,5710000,충청북도 청주시
라온푸드,99,충청북도,청원구,충청북도 청주시 청원구 오창읍 오창공원로 96 (한신 더 휴 센트럴파크),충청북도 청주시 청원구 오창읍 각리 636-2 한신 더 휴 센트럴파크 알뜰장터,,,,0,2021-08-05,2022-07-06,연중무휴,10:00,20:00,10:00,20:00,,,,,,,,,,,,,,,,,,,,,,,,,,충청북도 청주시 청원구청,043-201-1972,2022-08-18,5710000,충청북도 청주시
관광지-푸드트럭 업소명: 백로트레일러,99,강원도,홍천군,강원도 홍천군 서면 한치골길 262 (오션월드 실내 입구),강원도 홍천군 서면 팔봉리 산 125-17,,,1,월 매출액의 40,2021-01-01,2022-12-31,일주일에 한번 자율적 휴무,13:30,18:30,13:30,18:30,13:30,18:30,13:30,18:30,13:30,18:30,13:30,18:30,13:30,18:30,13:30,18:30,13:30,18:30,13:30,18:30,13:30,18:30,13:30,18:30,13:30,18:30,13:30,18:30,,강원도 홍천군청,033-430-2654,2022-06-22,4250000,강원도 홍천군
관광지-푸드트럭 업소명:백로트레일러2호점,99,강원도,홍천군,강원도 홍천군 서면 한치골길 262 (오션월드 실외 공간),강원도 홍천군 서면 팔봉리 1290-2,,,1,월 매출액의 40,2021-01-01,2022-12-31,일주일에 한번 자율적 휴무,13:30,18:30,13:30,18:30,13:30,18:30,13:30,18:30,13:30,18:30,13:30,18:30,13:30,18:30,13:30,18:30,13:30,18:30,13:30,18:30,13:30,18:30,13:30,18:30,13:30,18:30,13:30,18:30,,강원도 홍천군청,033-430-2654,2022-06-22,4250000,강원도 홍천군
관광지-푸드트럭 업소명:스노위랜드푸드트레일러1호,99,강원도,홍천군,"강원도 홍천군 서면 한치골길 262, 대명비발디파크",강원도 홍천군 서면 팔봉리 1290-2 대명비발디파크,,,1,월 매출액의 15,2021-12-01,2022-03-31,연중무휴,10:00,18:00,10:00,18:00,10:00,18:00,10:00,18:00,10:00,18:00,10:00,18:00,10:00,18:00,10:00,18:00,10:00,18:00,10:00,18:00,10:00,18:00,10:00,18:00,10:00,18:00,10:00,18:00,,강원도 홍천군청,033-430-2654,2022-06-22,4250000,강원도 홍천군
관광지-푸드트럭 업소명:스노위랜드푸드트레일러2호,99,강원도,홍천군,"강원도 홍천군 서면 한치골길 262, 대명비발디파크",강원도 홍천군 서면 팔봉리 1290-2 대명비발디파크,,,1,월 매출액의 15,2021-12-01,2022-03-31,연중무휴,10:00,18:00,10:00,18:00,10:00,18:00,10:00,18:00,10:00,18:00,10:00,18:00,10:00,18:00,10:00,18:00,10:00,18:00,10:00,18:00,10:00,18:00,10:00,18:00,10:00,18:00,10:00,18:00,,강원도 홍천군청,033-430-2654,2022-06-22,4250000,강원도 홍천군
관광지-푸드트럭 업소명:가든파인,99,강원도,홍천군,"강원도 홍천군 서면 한치골길 262, 비발디파크 단지 내",강원도 홍천군 서면 팔봉리 1290-2 대명비발디파크,,,1,0,2021-12-01,2022-03-31,연중무휴,15:00,22:00,15:00,22:00,15:00,22:00,15:00,22:00,15:00,22:00,15:00,22:00,15:00,22:00,15:00,22:00,15:00,22:00,15:00,22:00,15:00,22:00,15:00,22:00,15:00,22:00,15:00,22:00,,강원도 홍천군청,033-430-2654,2022-06-22,4250000,강원도 홍천군
소요쿠키앤커피,3,전라북도,전주시 완산구,"전라북도 전주시 완산구 모악산자락길 22, 완산생활체육공원 내 푸드트럭 존",,,,,"월660,000",2016-10-15,2022-04-22,미지정,09:30,17:30,09:30,17:30,,,,,,,,,,,,,,,,,,,,,,,,,,전주시시설관리공단,063-239-2569,2021-10-05,4640000,전라북도 전주시
전주지역자활센터청년사업콩닥콩닥푸드트럭,3,전라북도,전주시 완산구,"전라북도 전주시 완산구 모악산자락길 22, 완산생활체육공원 내 푸드트럭 존",,,,,"월35,800",2020-09-01,2022-12-13,미지정,11:00,17:00,11:00,17:00,,,,,,,,,,,,,,,,,,,,,,,,,,전주시시설관리공단,063-239-2569,2021-10-05,4640000,전라북도 전주시
중문해수욕장주차장,2,제주특별자치도,서귀포시,,제주특별자치도 서귀포시 색달동 2950-3,33.2449362422,126.4147621547,1,0,2020-12-01,2025-07-15,연중무휴,00:00,23:59,00:00,23:59,,,,,,,,,,,,,,,,,,,,,,,,,,제주특별자치도 서귀포시청,064-760-2424,2022-12-15,6520000,제주특별자치도 서귀포시
중문해수욕장주차장,2,제주특별자치도,서귀포시,,제주특별자치도 서귀포시 색달동 2950-3,33.2449362422,126.4147621547,1,0,2020-12-24,2025-07-15,연중무휴,00:00,23:59,00:00,23:59,,,,,,,,,,,,,,,,,,,,,,,,,,제주특별자치도 서귀포시청,064-760-2424,2022-12-15,6520000,제주특별자치도 서귀포시
제2산록도로 광평교차로,99,제주특별자치도,서귀포시,,제주특별자치도 서귀포시 안덕면 동광리 산 28,33.3293939262,126.3563919641,1,14200원,2021-04-13,2023-04-01,연중무휴,00:00,23:59,00:00,23:59,,,,,,,,,,,,,,,,,,,,,,,,,,제주특별자치도 서귀포시청,064-760-2424,2022-12-15,6520000,제주특별자치도 서귀포시
남조로 사려니숲길입구,99,제주특별자치도,서귀포시,,제주특별자치도 서귀포시 표선면 가시리 산 158-4,33.3948882127,126.6851488953,1,0,2021-04-08,2023-04-07,연중무휴,00:00,23:59,00:00,23:59,,,,,,,,,,,,,,,,,,,,,,,,,,제주특별자치도 서귀포시청,064-760-2424,2022-12-15,6520000,제주특별자치도 서귀포시
남조로 사려니숲길입구,99,제주특별자치도,서귀포시,,제주특별자치도 서귀포시 표선면 가시리 산 158-4,33.3948882127,126.6851488953,1,0,2021-04-07,2023-04-07,연중무휴,00:00,23:59,00:00,23:59,,,,,,,,,,,,,,,,,,,,,,,,,,제주특별자치도 서귀포시청,064-760-2424,2022-12-15,6520000,제주특별자치도 서귀포시
남조로 사려니숲길입구,99,제주특별자치도,서귀포시,,제주특별자치도 서귀포시 표선면 가시리 산 158-4,33.3948882127,126.685139,1,0,2021-04-07,2023-04-07,연중무휴,00:00,23:59,00:00,23:59,,,,,,,,,,,,,,,,,,,,,,,,,,제주특별자치도 서귀포시청,064-760-2424,2022-12-15,6520000,제주특별자치도 서귀포시
남조로 사려니숲길입구,99,제주특별자치도,서귀포시,,제주특별자치도 서귀포시 표선면 가시리 산 158-4,33.394888,126.685149,1,0,2021-04-09,2023-04-07,연중무휴,00:00,23:59,00:00,23:59,,,,,,,,,,,,,,,,,,,,,,,,,,제주특별자치도 서귀포시청,064-760-2424,2022-12-15,6520000,제주특별자치도 서귀포시
구)탐라대교차로,99,제주특별자치도,서귀포시,,제주특별자치도 서귀포시 하원동 산 76-1,33.2911445095,126.4609316536,1,19000원,2021-06-07,2023-05-31,연중무휴,00:00,23:59,00:00,23:59,,,,,,,,,,,,,,,,,,,,,,,,,,제주특별자치도 서귀포시청,064-760-2424,2022-12-15,6520000,제주특별자치도 서귀포시
솔오름주차장,99,제주특별자치도,서귀포시,제주특별자치도 서귀포시 당동산로83번길 5,제주특별자치도 서귀포시 서홍동 2142-7,33.2692859042,126.5420903805,1,56980원,2021-11-03,2023-10-06,연중무휴,00:00,23:59,00:00,23:59,,,,,,,,,,,,,,,,,,,,,,,,,,제주특별자치도 서귀포시청,064-760-2424,2022-12-15,6520000,제주특별자치도 서귀포시
"서서울톨게이트,(서울방향)졸음쉼터 내",07,경기도,안산시 상록구,경기도 안산시 상록구 안산벌말길 95,"경기도 안산시 상록구 장하동 산 8-1,서서울톨게이트 서울방향",37.35664272,126.8648238,1,0,2017-12-15,2018-12-14,연중무휴,00:00,23:59,00:00,23:59,,,,,,,,,,,,,,,,,,,,,,,,,,경기도 안산시 상록구청 환경위생과,031-481-5235,2022-12-20,3930000,경기도 안산시
"서서울톨게이트,(목포방향)졸음쉼터 내",07,경기도,안산시 상록구,"경기도 안산시 상록구 장하로 141-2, 서서울TG(목포)졸음쉼터 내 (장하동)","경기도 안산시 상록구 장하동 151,서서울TG(목포)졸음쉼터 내",37.3549176,126.8619896,1,0,2017-12-15,2018-12-14,연중무휴,00:00,23:59,00:00,23:59,,,,,,,,,,,,,,,,,,,,,,,,,,경기도 안산시 상록구청 환경위생과,031-481-5235,2022-12-20,3930000,경기도 안산시
부곡온천관광특구,2,경상남도,창녕군,,경상남도 창녕군 부곡면 거문리 723-2,35.4414699992,128.5852134001,1,0,2020-11-28,2022-11-27,연중무휴,09:00,22:00,09:00,22:00,09:00,20:00,09:00,20:00,09:00,22:00,09:00,22:00,09:00,22:00,09:00,22:00,09:00,22:00,09:00,22:00,09:00,22:00,09:00,22:00,09:00,22:00,09:00,20:00,허가품목 외,경상남도 창녕군청,055-530-1094,2022-01-14,5410000,경상남도 창녕군
당항포관광지,02,경상남도,고성군,경상남도 고성군 회화면 당항만로 1116,경상남도 고성군 회화면 봉동리 950-1,35.0532261508,128.3920276219,1,0,2015-10-20,2018-10-19,연중무휴,09:00,18:00,09:00,18:00,,,,,,,,,,,,,,,,,,,,,,,,,,경상남도 고성군,055-670-4504,2021-12-29,5420000,경상남도 고성군
갈모봉산림욕장,99,경상남도,고성군,,경상남도 고성군 고성읍 이당리 653-2,34.9765778755,128.2686029562,1,0,2016-12-01,2018-11-30,연중무휴,09:00,18:00,09:00,18:00,,,,,,,,,,,,,,,,,,,,,,,,,,경상남도 고성군,055-670-2673,2021-12-29,5420000,경상남도 고성군
이천농업테마공원 공원부지,99,경기도,이천시,경기도 이천시 모가면 공원로 48,경기도 이천시 모가면 어농리 871-3,37.17960623,127.4453047,2,연 127820원,2019-03-08,2021-03-07,운영중단,00:00,00:00,00:00,00:00,00:00,00:00,00:00,00:00,00:00,00:00,00:00,00:00,00:00,00:00,00:00,00:00,00:00,00:00,00:00,00:00,00:00,00:00,00:00,00:00,00:00,00:00,00:00,00:00,운영중단,이천시시설관리공단,031-632-6607,2022-10-07,B553081,이천시시설관리공단
서동생활공원,3,경상남도,의령군,경상남도 의령군 의령읍 의병로8길 44,경상남도 의령군 의령읍 서동리 543,35.31545351,128.2558931,1,연 60220원,2018-08-09,2023-08-08,연중무휴,10:00,21:00,10:00,21:00,10:00,21:00,10:00,21:00,10:00,21:00,10:00,21:00,10:00,21:00,10:00,21:00,10:00,21:00,10:00,21:00,10:00,21:00,10:00,21:00,10:00,21:00,10:00,21:00,주류,경상남도 의령군청,055-570-2633,2022-10-11,5390000,경상남도 의령군
금오랜드,1,경상북도,구미시,경상북도 구미시 금오산로 339 (남통동),경상북도 구미시 남통동 253,36.11330434,128.3155849,1,0,2015-02-11,2099-12-31,연중무휴,09:00,20:00,09:00,20:00,,,,,,,,,,,,,,,,,,,,,,,,,,경상북도 구미시청,054-480-5598,2022-10-28,5080000,경상북도 구미시
구미소명장로교회,1,경상북도,구미시,경상북도 구미시 봉곡북로1길 39 (봉곡동),경상북도 구미시 봉곡동 694,36.158199,128.303573,1,0,2021-11-09,2023-12-30,연중무휴,09:00,21:00,09:00,21:00,,,,,,,,,,,,,,,,,,,,,,,,,,경상북도 구미시청,054-480-5598,2022-10-28,5080000,경상북도 구미시
남광주밤기차야시장,99,광주광역시,동구,광주광역시 동구 제봉로 7,광주광역시 동구 학동 55,35.1389375,126.9218722,,월 200000원,2016-10-21,2022-12-31,월+화+수+목+금+일,10:00,19:00,18:30,23:30,,,,,,,,,,,,,,,,,,,,,,,,,주류,광주광역시 동구청,062-608-3357,2022-10-07,6290000,광주광역시
국립아시아문화전당,8,광주광역시,동구,광주광역시 동구 문화전당로 38,광주광역시 동구 광산동 13,35.14691559,126.9199945,,행사별 다름,2017-05-02,2022-12-31,행사종료일,17:00,22:00,17:00,22:00,,,,,,,,,,,,,,,,,,,,,,,,,주류,광주광역시 동구청,062-608-3357,2022-10-07,6290000,광주광역시
충장축제 행사장,99,광주광역시,동구,광주광역시 동구 문화전당로 38,광주광역시 동구 광산동 13,35.14691559,126.9199945,,"550000(5일, 부과세 포함)",2016-09-26,2022-12-31,행사종료일,12:30,22:00,12:30,22:00,,,,,,,,,,,,,,,,,,,,,,,,,주류,광주광역시 동구청,062-608-3357,2022-10-07,6290000,광주광역시
진건도서관,8,경기도,남양주시,경기도 남양주시 진건읍 진건오남로 41-25,경기도 남양주시 진건읍 사능리 646-7,37.65513558,127.1774389,1,0,2019-06-01,2023-05-31,연중무휴,00:00,12:00,00:00,12:00,,,,,,,,,,,,,,,,,,,,,,,,,주류,경기도 남양주시청,031-590-3980,2022-03-31,3990000,경기도 남양주시
별내체육공원,3,경기도,남양주시,경기도 남양주시 별내3로 244(별내동),경기도 남양주시 별내동 910,37.65972953,127.1213599,1,0,2019-07-07,2022-07-06,연중무휴,00:00,12:00,00:00,12:00,,,,,,,,,,,,,,,,,,,,,,,,,주류,경기도 남양주시청,031-590-3981,2022-03-31,3990000,경기도 남양주시
다산동사무소,8,경기도,남양주시,경기도 남양주시 다산중앙로 7(다산동),경기도 남양주시 다산동 6150,37.6139266,127.1555493,1,0,2019-10-08,2021-10-13,연중무휴,00:00,12:00,00:00,12:00,,,,,,,,,,,,,,,,,,,,,,,,,주류,경기도 남양주시청,031-590-3982,2022-03-31,3990000,경기도 남양주시
나무아래서(푸드트럭),99,경기도,남양주시,"경기도 남양주시 오남읍 양지로 175-16, 지정장소(건물 앞)",경기도 남양주시 오남읍 오남리 835-10 지정장소(건물 앞),37.692588,127.1994214,1,0,2021-06-08,2021-12-31,연중무휴,00:00,12:00,00:00,12:00,,,,,,,,,,,,,,,,,,,,,,,,,주류,경기도 남양주시청,031-590-3983,2022-03-31,3990000,경기도 남양주시
힐링카페(푸드트럭),99,경기도,남양주시,"경기도 남양주시 불암산로59번길 48-27, 지정장소(건물 앞)(별내동)",경기도 남양주시 별내동 784-19 지정장소(건물 앞),37.64998827,127.0998976,1,0,2022-01-27,2026-11-25,연중무휴,00:00,12:00,00:00,12:00,,,,,,,,,,,,,,,,,,,,,,,,,주류,경기도 남양주시청,031-590-3983,2022-03-31,3990000,경기도 남양주시
금성아파트,99,경기도,이천시,"경기도 이천시 향교로79번길 25(창전동, 금성아파트)",경기도 이천시 창전동 432-13 금성아파트,37.28567842,127.4462381,1,0,2021-11-19,2022-12-31,연중무휴,09:00,20:00,09:00,20:00,09:00,20:00,09:00,20:00,09:00,20:00,09:00,20:00,09:00,20:00,09:00,20:00,09:00,20:00,09:00,20:00,09:00,20:00,09:00,20:00,09:00,20:00,09:00,20:00,,경기도 이천시청,031-645-3844,2022-03-31,4070000,경기도 이천시
이월드,1,대구광역시,달서구,"대구광역시 달서구 두류공원로 200, 부메랑스낵 옆 (두류동)",대구광역시 달서구 두류동 산302-11,35.85485186,128.5648168,2,이월드 자체운영,2019-01-02,2022-12-31,연중무휴,10:00,22:00,10:00,22:00,,,,,,,,,,,,,,,,,,,,,,,,,,대구광역시 달서구청,053-667-3764,2022-03-23,3470000,대구광역시 달서구
저류시설,4,전라남도,순천시,전라남도 순천시 풍덕동 691,전라남도 순천시 풍덕동 691,34.9353601,127.4997947,25,월 3500000원,2021-09-01,2023-12-31,월,18:00,00:00,18:00,00:00,18:00,00:00,18:00,00:00,18:00,00:00,18:00,00:00,18:00,00:00,18:00,00:00,18:00,00:00,18:00,00:00,18:00,00:00,18:00,00:00,18:00,00:00,18:00,00:00,주류,전라남도 순천시청 지역경제과,061-749-5811,2022-08-03,4820000,전라남도 순천시
칠곡군,1,경상북도,칠곡군,,경상북도 칠곡군 석적읍 중지리 552,36.018344,128.401163,1,"년51,040원",2017-03-30,2021-03-07,없음,10:00,23:00,10:00,23:00,,,,,,,,,,,,,,,,,,,,,,,,,,칠곡군,054-979-6674,2020-07-01,5220000,경상북도 칠곡군
우치공원,04,광주광역시,북구,광주광역시 북구 우치로 677(생용동),광주광역시 북구 생용동 90번지,35.22431388,126.8942421,1,연 40640원,2022-10-09,2024-10-08,연중무휴,10:00,18:00,10:00,18:00,10:00,18:00,10:00,18:00,10:00,18:00,10:00,18:00,10:00,18:00,10:00,18:00,10:00,18:00,10:00,18:00,10:00,18:00,10:00,18:00,10:00,18:00,10:00,18:00,주류+컵라면,광주광역시 우치공원,062-613-5860,2023-01-02,3620000,광주광역시 북구
포천한탄강하늘다리,2,경기도,포천시,,경기도 포천시 영북면 대회산리 376,38.0844445488,127.2193007,8,별도계약,2019-08-02,2022-08-02,연중무휴,10:00,19:00,10:00,19:00,,,,,,,,,,,,,,,,,,,,,,,,,,경기도 포천시청,031-538-3630,2023-01-03,5600000,경기도 포천시
포천백운계곡,2,경기도,포천시,,경기도 포천시 이동면 도평리 720,38.08091795,127.4213071,7,별도계약,2020-07-24,2022-07-24,연중무휴,10:00,19:00,10:00,19:00,,,,,,,,,,,,,,,,,,,,,,,,,,경기도 포천시청,031-538-3630,2023-01-03,5600000,경기도 포천시
경기도의료원포천병원,99,경기도,포천시,,경기도 포천시 신읍동 243-1,37.90314867,127.1974831,1,별도계약,2020-09-16,2022-09-16,연중무휴,10:00,19:00,10:00,19:00,,,,,,,,,,,,,,,,,,,,,,,,,,경기도 포천시청,031-538-3630,2023-01-03,5600000,경기도 포천시
포천힐스,3,경기도,포천시,,경기도 포천시 군내면 상성북리 34-1,37.88641104,127.2307107,1,별도계약,2020-07-09,2022-07-09,연중무휴,10:00,19:00,10:00,19:00,,,,,,,,,,,,,,,,,,,,,,,,,,경기도 포천시청,031-538-3630,2023-01-03,5600000,경기도 포천시
청성역사공원 지역,4,경기도,포천시,,경기도 포천시 군내면 하성북리 637-5,37.89258618,127.2100974,1,별도계약,2021-01-29,2023-01-29,연중무휴,10:00,19:00,10:00,19:00,,,,,,,,,,,,,,,,,,,,,,,,,,경기도 포천시청,031-538-3630,2023-01-03,5600000,경기도 포천시
베어스타운,3,경기도,포천시,경기도 포천시 내촌면 금강로2536번길 27,경기도 포천시 내촌면 소학리 274,37.79991851,127.2451998,1,별도계약,2021-12-10,2023-12-10,연중무휴,10:00,19:00,10:00,19:00,,,,,,,,,,,,,,,,,,,,,,,,,,경기도 포천시청,031-538-3630,2023-01-03,5600000,경기도 포천시
카페베리 앞 도로,2,전라북도,고창군,전라북도 고창군 심원면 심원로 270-66,전라북도 고창군 심원면 월산리 247-16,,,1,0,2018-05-07,2018-05-07,화요일+수요일,12:00,17:30,12:00,17:30,,,,,,,,,,,,,,,,,,,,,,,,,,전라북도 고창군,063-560-2887,2023-01-20,4780000,전라북도 고창군
꽃길프로젝트,2,전라북도,고창군,전라북도 고창군 부안면 복분자로 307,전라북도 고창군 부안면 용산리 409-2,,,1,0,2021-09-15,2023-09-22,연중무휴,09:00,18:00,09:00,18:00,,,,,,,,,,,,,,,,,,,,,,,,,,전라북도 고창군,063-560-2887,2023-01-20,4780000,전라북도 고창군
장애인복지관 주차장,99,전라북도,고창군,"전라북도 고창군 고창읍 전봉준로 88-9, 고창군장애인복지관 주차장",전라북도 고창군 고창읍 율계리 113,,,1,0,2022-10-04,2023-07-31,연중무휴,09:00,18:00,09:00,18:00,,,,,,,,,,,,,,,,,,,,,,,,,,전라북도 고창군,063-560-2887,2023-01-20,4780000,전라북도 고창군
어울림근린공원,4,경기도,동두천시,,경기도 동두천시 생연동 714-6,37.8981212,127.0516976,1,연 257100원,2020-07-05,2022-07-04,연중무휴,10:00,21:00,10:00,21:00,00:00,00:00,00:00,00:00,10:00,21:00,10:00,21:00,10:00,21:00,10:00,21:00,10:00,21:00,10:00,21:00,10:00,21:00,10:00,21:00,10:00,21:00,00:00,00:00,주류,경기도 동두천시청 농업축산위생과,031-860-2232,2022-12-29,3920000,경기도 동두천시
캠프보산 월드푸드스트리트,8,경기도,동두천시,,경기도 동두천시 보산동 429-19,37.91656508,127.0563231,14,연 1000000원,2020-06-20,2023-06-20,1월+2월+12월,18:00,23:00,18:00,23:00,00:00,00:00,00:00,00:00,18:00,23:00,18:00,23:00,18:00,23:00,18:00,23:00,18:00,23:00,18:00,23:00,18:00,23:00,18:00,23:00,18:00,23:00,00:00,00:00,주류,경기도 동두천시청 농업축산위생과,031-860-2275,2022-12-29,3920000,경기도 동두천시
농어민문화체육센터,3,전라남도,완도군,전라남도 완도군 완도읍 개포로111,,34.31667144,126.7416714,,월 36080원,2020-01-01,2021-12-31,연중무휴,01:00,00:00,01:00,00:00,,,,,,,,,,,,,,,,,,,,,,,,,,전라남도 완도군청 체육진흥과(시설관리운영팀),061-550-5437,2022-12-21,4990000,전라남도 완도군
태풍센터근처,99,제주특별자치도,서귀포시,,제주특별자치도 서귀포시 남원읍 한남리 산 76-1,33.332369,126.677829,1,0,2020-10-22,2022-10-15,연중무휴,00:00,23:59,00:00,23:59,,,,,,,,,,,,,,,,,,,,,,,,,,제주특별자치도 서귀포시청,064-760-2424,2022-12-15,6520000,제주특별자치도 서귀포시
휴애리근처,99,제주특별자치도,서귀포시,,제주특별자치도 서귀포시 남원읍 위미리 산 102-5,33.322486,126.647488,1,0,2021-04-08,2023-04-07,연중무휴,00:00,23:59,00:00,23:59,,,,,,,,,,,,,,,,,,,,,,,,,,제주특별자치도 서귀포시청,064-760-2424,2022-12-15,6520000,제주특별자치도 서귀포시
솔오름전망대,99,제주특별자치도,서귀포시,,제주특별자치도 서귀포시 동홍동 2150-1,33.291722,126.5557761500,1,67300원,2021-03-22,2023-03-31,연중무휴,00:00,23:59,00:00,23:59,,,,,,,,,,,,,,,,,,,,,,,,,,제주특별자치도 서귀포시청,064-760-2424,2022-12-15,6520000,제주특별자치도 서귀포시
솔오름전망대,99,제주특별자치도,서귀포시,,제주특별자치도 서귀포시 동홍동 2150-1,33.291727,126.5557761500,1,67300원,2021-04-09,2023-03-31,연중무휴,00:00,23:59,00:00,23:59,,,,,,,,,,,,,,,,,,,,,,,,,,제주특별자치도 서귀포시청,064-760-2424,2022-12-15,6520000,제주특별자치도 서귀포시
솔오름전망대,99,제주특별자치도,서귀포시,,제주특별자치도 서귀포시 동홍동 2150-1,33.291732,126.5557204,1,67300원,2021-04-09,2023-03-31,연중무휴,00:00,23:59,00:00,23:59,,,,,,,,,,,,,,,,,,,,,,,,,,제주특별자치도 서귀포시청,064-760-2424,2022-12-15,6520000,제주특별자치도 서귀포시
금산군푸드트럭존,99,충청남도,금산군,충청남도 금산군 금산읍 금산로 1559,충청남도 금산군 금산읍 중도리 203-1,36.11206754,127.4916373,1,년 618700원,2017-03-17,2025-05-10,연중무휴,10:00,20:00,10:00,20:00,13:00,17:00,13:00,17:00,13:00,17:00,10:00,20:00,10:00,20:00,10:00,20:00,10:00,20:00,10:00,20:00,10:00,20:00,10:00,20:00,13:00,17:00,13:00,17:00,,충청남도 금산군,041-750-4454,2022-11-29,4550000,충청남도 금산군
진포해양테마공원 내,8,전라북도,군산시,,전라북도 군산시 장미동 1-71,35.98981733,126.7143097,6,월 44020원(1대당),2022-09-01,2024-08-31,월요일+화요일+수요일+목요일,16:00,22:00,16:00,22:00,,,,,,,,,,,,,,,,,,,,,,,,,,전라북도 군산시청,063-454-3425,2022-11-22,4670000,전라북도 군산시
남해고속도로지수졸음쉼터,07,경상남도,진주시,,경상남도 진주시 지수면 금곡리 240-4,35.208665,128.2584617986,1,월 200000원,2020-12-29,2021-12-28,공휴일,08:00,20:00,08:00,20:00,08:00,20:00,08:00,20:00,08:00,20:00,08:00,20:00,08:00,20:00,08:00,20:00,08:00,20:00,08:00,20:00,08:00,20:00,08:00,20:00,08:00,20:00,08:00,20:00,주류,경상남도 진주시청,055-749-8373,2022-12-08,5310000,경상남도 진주시
도시공원,04,경상남도,진주시,경상남도 진주시 남강로 1655,"경상남도 진주시 초전동 1583-14(초전동,초전공원내)",35.20888669,128.1250513,1,연 60000원,2020-09-23,2023-09-21,연중무휴,10:00,17:00,10:00,17:00,10:00,17:00,10:00,17:00,10:00,17:00,10:00,17:00,10:00,17:00,10:00,17:00,10:00,17:00,10:00,17:00,10:00,17:00,10:00,17:00,10:00,17:00,10:00,17:00,주류,경상남도 진주시청,055-749-8373,2022-12-08,5310000,경상남도 진주시
자연공원,04,경상남도,진주시,,경상남도 진주시 진성면 동산리 1263 (월아산 숲속의 진주 내 일부공간),35.1995515,128.1962342180,1,연 132000원,2022-11-14,2023-11-13,연중무휴,09:00,18:00,09:00,18:00,09:00,18:00,09:00,18:00,09:00,18:00,09:00,18:00,09:00,18:00,09:00,18:00,09:00,18:00,09:00,18:00,09:00,18:00,09:00,18:00,09:00,18:00,09:00,18:00,주류,경상남도 진주시청,055-749-8373,2022-12-08,5310000,경상남도 진주시
도시공원,04,경상남도,진주시,경상남도 진주시 대밭골로 15,경상남도 진주시 충무공동 183 물초울공원 광장1구역,35.183354476,128.14581666,1,연 2330000원,2022-07-16,2024-07-15,연중무휴,09:00,19:00,09:00,19:00,09:00,19:00,09:00,19:00,09:00,19:00,09:00,19:00,09:00,19:00,09:00,19:00,09:00,19:00,09:00,19:00,09:00,19:00,09:00,19:00,09:00,19:00,09:00,19:00,주류,경상남도 진주시청,055-749-8373,2022-12-08,5310000,경상남도 진주시
도시공원,04,경상남도,진주시,경상남도 진주시 대밭골로 15,경상남도 진주시 충무공동 183 물초울공원 광장 3구역,35.182976294,128.145778417,1,연 1160000원,2022-08-19,2024-08-18,연중무휴,09:00,19:00,09:00,19:00,09:00,19:00,09:00,19:00,09:00,19:00,09:00,19:00,09:00,19:00,09:00,19:00,09:00,19:00,09:00,19:00,09:00,19:00,09:00,19:00,09:00,19:00,09:00,19:00,주류,경상남도 진주시청,055-749-8373,2022-12-08,5310000,경상남도 진주시
치요남치킨강촌점,2,강원도,춘천시,강원도 춘천시 남면 충효로 1381,강원도 춘천시 남면 가정리 908,37.733325,127.576019,1,0,2019-08-23,2025-12-31,연중무휴,09:00,18:00,09:00,18:00,,,,,,,,,,,,,,,,,,,,,,,,,,강원도 춘천시 춘천시청,033-250-3323,2022-11-24,4180000,강원도 춘천시
강변쉼터,2,강원도,춘천시,강원도 춘천시 남산면 북한강변길 910-36 (마을회관 맞은편도로),강원도 춘천시 남산면 강촌리 570-3,37.825508,127.614821,1,0,2020-07-16,2022-12-20,연중무휴,09:00,18:00,09:00,18:00,,,,,,,,,,,,,,,,,,,,,,,,,,강원도 춘천시 춘천시청,033-250-3323,2022-11-24,4180000,강원도 춘천시
강촌강변,2,강원도,춘천시,"강원도 춘천시 남산면 북한강변길 910-36, 마을회관 맞은편 도로",강원도 춘천시 남산면 강촌리 570-3,37.825508,127.614821,1,0,2020-07-16,2022-12-20,연중무휴,09:00,18:00,09:00,18:00,,,,,,,,,,,,,,,,,,,,,,,,,,강원도 춘천시 춘천시청,033-250-3323,2022-11-24,4180000,강원도 춘천시
몽키푸드,2,강원도,춘천시,강원도 춘천시 남면 충효로 1381,강원도 춘천시 남면 가정리 907-3,37.733325,127.576019,1,0,2020-09-21,2025-12-31,연중무휴,09:00,18:00,09:00,18:00,,,,,,,,,,,,,,,,,,,,,,,,,,강원도 춘천시 춘천시청,033-250-3323,2022-11-24,4180000,강원도 춘천시
강남역푸드트럭존,99,서울특별시,서초구,서울특별시 서초구 강남대로 399,서울특별시 서초구 서초동 1318-8,37.49826672,127.026867,14,1441900,2017-01-01,2022-12-31,연중무휴,12:00,23:00,12:00,23:00,12:00,23:00,12:00,23:00,12:00,23:00,12:00,23:00,12:00,23:00,12:00,23:00,12:00,23:00,12:00,23:00,12:00,23:00,12:00,23:00,12:00,23:00,12:00,23:00,,서울특별시 서초구,02-2155-6954,2022-11-25,3210000,서울특별시 서초구
성모병원사거리,99,서울특별시,서초구,서울특별시 서초구 반포대로 222,서울특별시 서초구 반포동 123,37.50239362,127.0058606,1,269500,2017-01-01,2022-12-31,연중무휴,12:00,23:00,12:00,23:00,12:00,23:00,12:00,23:00,12:00,23:00,12:00,23:00,12:00,23:00,12:00,23:00,12:00,23:00,12:00,23:00,12:00,23:00,12:00,23:00,12:00,23:00,12:00,23:00,,서울특별시 서초구,02-2155-6954,2022-11-25,3210000,서울특별시 서초구
루지체험장,2,강원도,횡성군,,강원도 횡성군 우천면 오원리 321-7,,,3,0,2020-08-06,2022-08-04,동절기(12월~2월),00:00,23:59,00:00,23:59,,,,,00:00,23:59,00:00,23:59,00:00,23:59,00:00,23:59,00:00,23:59,00:00,23:59,00:00,23:59,00:00,23:59,00:00,23:59,,,,횡성군,033-340-5693,2021-10-13,4260000,강원도 횡성군
루지체험장,2,강원도,횡성군,,강원도 횡성군 안흥면 안흥리 산 190-11,,,1,0,2020-07-30,2022-08-04,동절기(12월~2월),00:00,23:59,00:00,23:59,,,,,00:00,23:59,00:00,23:59,00:00,23:59,00:00,23:59,00:00,23:59,00:00,23:59,00:00,23:59,00:00,23:59,00:00,23:59,,,,횡성군,033-340-5693,2021-10-13,4260000,강원도 횡성군
DGB대구은행파크,99,대구광역시,북구,"대구광역시 북구 고성로 191, DGB대구은행파크 (고성동3가)",대구광역시 북구 고성동3가 2,35.88301488,128.5861602,,0,2022-08-12,2022-08-27,비정기적,00:00,23:59,00:00,23:59,,,,,,,,,,,,,,,,,,,,,,,,,,대구광역시 북구청 위생과,053-665-2754,2022-09-08,3450000,대구광역시 북구
산청 동의보감촌,1,경상남도,산청군,경상남도 산청군 금서면 동의보감로555번길 153,경상남도 산청군 금서면 특리 1300-77,35.4373878092,127.8270935380,1,연 26070원,2021-07-26,2024-07-25,월요일,09:00,18:00,09:00,18:00,09:00,18:00,09:00,18:00,09:00,18:00,09:00,18:00,09:00,18:00,09:00,18:00,09:00,18:00,09:00,18:00,09:00,18:00,09:00,18:00,09:00,18:00,09:00,18:00,주류,경상남도 산청군청,055-970-6634,2022-09-23,5450000,경상남도 산청군
부엉이푸드,99,충청북도,흥덕구,충청북도 청주시 흥덕구 옥산면 오송가락로 1056 (청주리버파크자이),충청북도 청주시 흥덕구 옥산면 가락리 981 청주리버파크자이,,,,0,2021-11-01,2022-09-30,연중무휴,10:00,20:00,10:00,20:00,,,,,,,,,,,,,,,,,,,,,,,,,,충청북도 청주시 흥덕구청,043-201-1972,2022-08-18,5710000,충청북도 청주시
닭강정,99,충청북도,흥덕구,충청북도 청주시 흥덕구 옥산면 오송가락로 1056 (청주리버파크자이),충청북도 청주시 흥덕구 옥산면 가락리 981 청주리버파크자이,,,,0,2021-11-08,2022-09-30,연중무휴,10:00,20:00,10:00,20:00,,,,,,,,,,,,,,,,,,,,,,,,,,충청북도 청주시 흥덕구청,043-201-1972,2022-08-18,5710000,충청북도 청주시
건강가족,99,충청북도,흥덕구,충청북도 청주시 흥덕구 옥산면 오송가락로 1056 (청주리버파크자이),충청북도 청주시 흥덕구 옥산면 가락리 981 청주리버파크자이,,,,0,2021-11-09,2022-09-30,연중무휴,10:00,20:00,10:00,20:00,,,,,,,,,,,,,,,,,,,,,,,,,,충청북도 청주시 흥덕구청,043-201-1972,2022-08-18,5710000,충청북도 청주시
독봉산웰빙공원,4,경상남도,거제시,,경상남도 거제시 상동동 1005-17,34.87732626,128.6342706,2,122950,2016-12-12,2023-03-04,사정에 따라 다름,00:00,23:59,00:00,23:59,09:00,18:00,09:00,18:00,09:00,18:00,09:00,18:00,09:00,18:00,09:00,18:00,09:00,18:00,09:00,18:00,09:00,18:00,09:00,18:00,09:00,18:00,09:00,18:00,식품위생법 시행령 제21조제8호 가목의 휴게음식점 영업 또는 같은 호 바목의 제과점영업을 제외한 업종,경상남도 거제시청,055-639-3984,2022-07-26,5370000,경상남도 거제시
지세포친수공간,4,경상남도,거제시,,경상남도 거제시 일운면 소동리 457-7,34.83930687,128.7008744,1,49540,2018-04-10,2023-03-04,사정에 따라 다름,00:00,23:59,00:00,23:59,09:00,18:00,09:00,18:00,09:00,18:00,09:00,18:00,09:00,18:00,09:00,18:00,09:00,18:00,09:00,18:00,09:00,18:00,09:00,18:00,09:00,18:00,09:00,18:00,식품위생법 시행령 제21조제8호 가목의 휴게음식점 영업 또는 같은 호 바목의 제과점영업을 제외한 업종,경상남도 거제시청,055-639-3984,2022-07-26,5370000,경상남도 거제시
거제시청,99,경상남도,거제시,경상남도 거제시 계룡로 125,경상남도 거제시 고현동 717,34.88052883,128.6208143,1,122950,2018-04-10,2023-03-04,사정에 따라 다름,00:00,23:59,00:00,23:59,09:00,18:00,09:00,18:00,09:00,18:00,09:00,18:00,09:00,18:00,09:00,18:00,09:00,18:00,09:00,18:00,09:00,18:00,09:00,18:00,09:00,18:00,09:00,18:00,식품위생법 시행령 제21조제8호 가목의 휴게음식점 영업 또는 같은 호 바목의 제과점영업을 제외한 업종,경상남도 거제시청,055-639-3984,2022-07-26,5370000,경상남도 거제시
렛츠런파크 부산경남 분수광장 옆,01,경상남도,김해시,,경상남도 김해시 수가동 1333,35.1563288,128.8722401,1,0,2018-11-16,2022-11-15,월요일+공휴일,09:30,18:00,09:30,18:00,,,,,,,,,,,,,,,,,,,,,,,,,주류,경상남도 김해시청,055-330-4461,2022-06-14,5350000,경상남도 김해시
낙동강레일파크 주차장,08,경상남도,김해시,,경상남도 김해시 생림면 마사리 644-1,35.37209737,128.8185758,1,0,2019-11-21,2022-08-06,매달 5번째 월요일,09:30,18:00,09:30,17:00,09:00,17:00,09:00,17:00,09:00,17:00,09:30,18:00,09:30,18:00,09:30,18:00,09:30,18:00,09:30,18:00,09:30,18:00,09:30,18:00,09:00,17:00,09:00,17:00,주류,경상남도 김해시청,055-330-4461,2022-06-14,5350000,경상남도 김해시
국가하천(남한강)하천구역,05,경기도,여주시,,경기도 여주시 현암동 633-5,37.31352805,127.6297161,1,0,2022-04-25,2027-05-31,토+일,00:00,23:59,00:00,00:00,,,,,,,,,,,,,,,,,,,,,,,,,,경기도 여주시청,031-887-2654,2022-12-01,5700000,경기도 여주시
가남졸음쉼터,99,경기도,여주시,,경기도 여주시 가남읍 삼승리 143-1,37.1690741,127.6265365,1,0,2022-08-30,2023-09-06,연중무휴,00:00,23:59,00:00,23:59,,,,,,,,,,,,,,,,,,,,,,,,,,경기도 여주시청,031-887-2654,2022-12-01,5700000,경기도 여주시
구좌 해안도로,8,제주특별자치도,제주시,,제주특별자치도 제주시 구좌읍 종달리 724,33.487252,126.902478,1,0,2017-07-24,2022-05-15,연중무휴,09:00,18:00,09:00,18:00,,,,,,,,,,,,,,,,,,,,,,,,,,제주시 위생관리과,064-728-2623,2021-09-23,6510000,제주특별자치도 제주시
수목원테마파크,1,제주특별자치도,제주시,제주특별자치도 제주시 은수길 69 (연동),제주특별자치도 제주시 연동 1320,33.47065036,126.4882178,18,0,2021-01-14,2021-12-31,연중무휴,19:00,22:00,19:00,22:00,,,,,,,,,,,,,,,,,,,,,,,,,,제주시 위생관리과,064-728-2623,2021-09-23,6510000,제주특별자치도 제주시
새별오름,8,제주특별자치도,제주시,,제주특별자치도 제주시 애월읍 봉성리 4554,33.36155908,126.3636535,8,년 36750원,2021-01-01,2021-12-31,연중무휴,10:00,18:00,10:00,18:00,,,,,,,,,,,,,,,,,,,,,,,,,,제주시 위생관리과,064-728-2623,2021-09-23,6510000,제주특별자치도 제주시
신포청년몰,99,인천광역시,중구,"인천광역시 중구 우현로35번길 7-2, 9-2",,37.4705030503,126.6267195559,2,연 1302730원 (부가세 포함),2018-04-24,2022-12-31,월,11:00,20:00,11:00,20:00,11:00,20:00,11:00,20:00,11:00,20:00,11:00,20:00,11:00,20:00,11:00,20:00,11:00,20:00,11:00,20:00,11:00,20:00,11:00,20:00,11:00,20:00,11:00,20:00,없음,인천광역시,032-760-7347,2022-08-30,3490000,인천광역시 중구
커피화이트컵,99,충청북도,상당구,"충청북도 청주시 상당구 다리실로249번길 181-14, 1층 (월오동)",충청북도 청주시 상당구 월오동 113-1,,,1,0,2019-01-02,2025-12-31,연중무휴,10:00,20:00,10:00,20:00,,,,,,,,,,,,,,,,,,,,,,,,,,충청북도 청주시 상당구청,043-201-1972,2022-08-18,5710000,충청북도 청주시
청남대별장푸드,99,충청북도,상당구,충청북도 청주시 상당구 문의면 회남문의로 1550,충청북도 청주시 상당구 문의면 괴곡리 266-1,,,,0,2019-04-15,2029-12-31,연중무휴,10:00,20:00,10:00,20:00,,,,,,,,,,,,,,,,,,,,,,,,,,충청북도 청주시 상당구청,043-201-1972,2022-08-18,5710000,충청북도 청주시
흥부네부뚜막&카페,99,충청북도,상당구,충청북도 청주시 상당구 가덕면 병암리 95-5,충청북도 청주시 상당구 가덕면 병암리 95-5,,,,0,2020-02-11,2024-05-31,연중무휴,10:00,20:00,10:00,20:00,,,,,,,,,,,,,,,,,,,,,,,,,,충청북도 청주시 상당구청,043-201-1972,2022-08-18,5710000,충청북도 청주시
부떡부떡떡볶이,99,충청북도,상당구,"충청북도 청주시 상당구 중고개로142번길 31 (용암동, 시티프라디움 1단지)",충청북도 청주시 상당구 용암동 3146 시티프라디움 1단지 알뜰장터 내,,,,0,2022-07-04,2023-05-24,연중무휴,10:00,20:00,10:00,20:00,,,,,,,,,,,,,,,,,,,,,,,,,,충청북도 청주시 상당구청,043-201-1972,2022-08-18,5710000,충청북도 청주시
나니돈까스.탕수육,99,충청북도,상당구,"충청북도 청주시 상당구 중고개로142번길 31 (용암동, 시티프라디움 1단지)",충청북도 청주시 상당구 용암동 3146 시티프라디움 1단지,,,,0,2022-08-12,2023-05-24,연중무휴,10:00,20:00,10:00,20:00,,,,,,,,,,,,,,,,,,,,,,,,,,충청북도 청주시 상당구청,043-201-1972,2022-08-18,5710000,충청북도 청주시
츄로츄러스,99,충청북도,흥덕구,충청북도 청주시 흥덕구 오송읍 오송가락로 123 (오송역 서광장),충청북도 청주시 흥덕구 오송읍 봉산리 370-31 오송역 서광장,,,,0,2016-10-07,2029-12-31,연중무휴,10:00,20:00,10:00,20:00,,,,,,,,,,,,,,,,,,,,,,,,,,충청북도 청주시 흥덕구청,043-201-1972,2022-08-18,5710000,충청북도 청주시
도담다방,99,충청북도,흥덕구,"충청북도 청주시 흥덕구 무심서로 857, 청주시차량등록사업소 1층 (신봉동)",충청북도 청주시 흥덕구 신봉동 491 청주시차량등록사업소,,,,0,2018-02-21,2023-02-28,연중무휴,10:00,20:00,10:00,20:00,,,,,,,,,,,,,,,,,,,,,,,,,,충청북도 청주시 흥덕구청,043-201-1972,2022-08-18,5710000,충청북도 청주시
야미(Yummy),99,충청북도,흥덕구,"충청북도 청주시 흥덕구 오송읍 오송가락로 123, 오송역 일원동",충청북도 청주시 흥덕구 오송읍 봉산리 370-31 오송역,,,,0,2018-10-18,2029-12-31,연중무휴,10:00,20:00,10:00,20:00,,,,,,,,,,,,,,,,,,,,,,,,,,충청북도 청주시 흥덕구청,043-201-1972,2022-08-18,5710000,충청북도 청주시
맛붐,99,충청북도,흥덕구,"충청북도 청주시 흥덕구 2순환로 1004, 롯데아울렛 청주점 1층 광장호 (비하동)",충청북도 청주시 흥덕구 비하동 811 롯데아울렛 청주점,,,,0,2019-03-07,2020-02-29,연중무휴,10:00,20:00,10:00,20:00,,,,,,,,,,,,,,,,,,,,,,,,,,충청북도 청주시 흥덕구청,043-201-1972,2022-08-18,5710000,충청북도 청주시
매튜516,99,충청북도,흥덕구,"충청북도 청주시 흥덕구 2순환로 1004, 롯데아울렛 청주점 광장 1층 (비하동)",충청북도 청주시 흥덕구 비하동 811 롯데아울렛 청주점,,,,0,2019-10-10,2029-12-31,연중무휴,10:00,20:00,10:00,20:00,,,,,,,,,,,,,,,,,,,,,,,,,,충청북도 청주시 흥덕구청,043-201-1972,2022-08-18,5710000,충청북도 청주시
맘스타,99,충청북도,흥덕구,"충청북도 청주시 흥덕구 2순환로 1004, 롯데아울렛 청주점 1층 정문광장호 (비하동)",충청북도 청주시 흥덕구 비하동 811 롯데아울렛 청주점,,,,0,2020-01-22,2029-12-31,연중무휴,10:00,20:00,10:00,20:00,,,,,,,,,,,,,,,,,,,,,,,,,,충청북도 청주시 흥덕구청,043-201-1972,2022-08-18,5710000,충청북도 청주시
왕송호수공원,4,경기도,의왕시,,경기도 의왕시 초평동 278번지 9호 왕송호수공원 내,,,1,년 33290원,2016-12-20,2019-12-14,월요일+화요일+수요일+목요일+금요일,00:00,00:00,10:00,19:00,,,,,,,,,,,,,,,,,,,,,,,,,,경기도 의왕시,031-345-2821,2022-11-23,4030000,경기도 의왕시
왕송호수공원,4,경기도,의왕시,,경기도 의왕시 초평동 278번지 9호 왕송호수공원 내,,,1,년 33290원,2016-12-05,2019-12-04,월요일+화요일+수요일+목요일+금요일,00:00,00:00,10:00,19:00,,,,,,,,,,,,,,,,,,,,,,,,,,경기도 의왕시,031-345-2821,2022-11-23,4030000,경기도 의왕시
의왕시청,8,경기도,의왕시,"경기도 의왕시 시청로 11 (고천동, 의왕시청)",경기도 의왕시 고천동 171번지 의왕시청,37.34531807,126.9679891,1,년 349910원,2017-03-20,2018-08-31,월요일+화요일+수요일+목요일+금요일,00:00,00:00,10:00,19:00,,,,,,,,,,,,,,,,,,,,,,,,,,경기도 의왕시,031-345-2821,2022-11-23,4030000,경기도 의왕시
자연학습공원,4,경기도,의왕시,"경기도 의왕시 왕송못동로 307 (월암동, 자연학습공원 내)",경기도 의왕시 월암동 543번지 3호 자연학습공원 내,37.30710763,126.9531458,1,년 39930원,2017-06-07,2018-11-03,월요일+화요일+수요일+목요일+금요일,00:00,00:00,10:00,19:00,,,,,,,,,,,,,,,,,,,,,,,,,,경기도 의왕시,031-345-2821,2022-11-23,4030000,경기도 의왕시
청계TG졸음쉼터,7,경기도,의왕시,"경기도 의왕시 안양판교로 476 (청계동, 서울외곽고속도로 청계TG졸음쉼터 내)",경기도 의왕시 청계동 산 8번지 18호 서울외곽고속도로 청계TG졸음쉼터 내,37.39327011,127.0223096,1,월 100000원,2018-02-23,2019-02-28,연중무휴,08:00,19:00,08:00,19:00,,,,,,,,,,,,,,,,,,,,,,,,,,경기도 의왕시,031-345-2821,2022-11-23,4030000,경기도 의왕시
청계산 공영주차장,99,경기도,의왕시,,경기도 의왕시 청계동 77번지 청계산 공영주차장,,,1,년 20790원,2017-09-27,2018-12-31,월요일+화요일+수요일+목요일+금요일,00:00,00:00,10:00,19:00,,,,,,,,,,,,,,,,,,,,,,,,,,경기도 의왕시,031-345-2821,2022-11-23,4030000,경기도 의왕시
남항대교 하부,08,부산광역시,영도구,,부산광역시 영도구 영선동4가 186-71,35.08212632,129.0390876,2,연 460350원,2021-01-27,2023-01-26,연중무휴,10:00,22:00,10:00,22:00,10:00,22:00,10:00,22:00,10:00,22:00,10:00,22:00,10:00,22:00,10:00,22:00,10:00,22:00,10:00,22:00,10:00,22:00,10:00,22:00,10:00,22:00,10:00,22:00,,부산광역시 영도구청,051-419-4653,2022-11-22,3280000,부산광역시 영도구
동강시스타,2,강원도,영월군,강원도 영월군 영월읍 사지막길 160,,,,,0,2019-12-27,2020-12-27,연중무휴,09:00,18:00,09:00,18:00,,,,,,,,,,,,,,,,,,,,,,,,,,강원도 영월군청,033-370-2312,2022-11-22,4270000,강원도 영월군
영월맨션아파트,99,강원도,영월군,강원도 영월군 영월읍 하송안길 89,,,,,0,2020-06-27,2020-07-18,연중무휴,09:00,18:00,09:00,18:00,,,,,,,,,,,,,,,,,,,,,,,,,,강원도 영월군청,033-370-2312,2022-11-22,4270000,강원도 영월군
히어리캠핑장펜션,2,강원도,영월군,강원도 영월군 김삿갓면 김삿갓로 587-6,,,,,0,2021-06-03,2022-05-31,연중무휴,09:00,18:00,09:00,18:00,,,,,,,,,,,,,,,,,,,,,,,,,,강원도 영월군청,033-370-2312,2022-11-22,4270000,강원도 영월군
용지문화공원,4,경상남도,창원시 성산구,경상남도 창원시 성산구 중앙대로186번길 13,경상남도 창원시 성산구 신월동 98,,,1,연79750원,2022-10-28,2023-10-27,연중무휴,10:00,23:59,10:00,23:59,10:00,23:59,10:00,23:59,10:00,23:59,10:00,23:59,10:00,23:59,10:00,23:59,10:00,23:59,10:00,23:59,10:00,23:59,10:00,23:59,10:00,23:59,10:00,23:59,커피등음료및간식류,경상남도 창원시 성산구청,055-272-4553,2022-11-16,5670000,경상남도 창원시
진해구민회관,99,경상남도,창원시 진해구,경상남도 창원시 진해구 진해대로325,경상남도 창원시 진해구 태백동 98,,,1,연100000원,2022-02-23,2025-02-22,연중무휴,10:00,15:00,10:00,15:00,,,,,,,,,,,,,,,,,,,,,,,,,,경상남도 창원시 진해구청,055-719-7890,2022-11-16,5670000,경상남도 창원시
아라미르CC마르코스,3,경상남도,창원시 진해구,경상남도 창원시 진해구 수제로36,경상남도 창원시 진해구 제덕동 898,,,1,0,2021-11-17,2025-12-31,연중무휴,10:00,17:00,10:00,17:00,10:00,17:00,10:00,17:00,10:00,17:00,,,,,,,,,,,,,,,,,10:00,17:00,주류,경상남도 창원시 진해구청,055-548-4561,2022-11-16,5670000,경상남도 창원시
경성대학교,6,부산광역시,남구,"부산광역시 남구 수영로 309, 경성대학교 27호관 중앙도서관 광장 앞 (대연동)",부산광역시 남구 대연동 산 37-1,,,1,0,2022-05-10,2022-05-13,운영종료(축제기간 중 한시적 운영),10:00,20:00,00:00,00:00,,,,,,,,,,,,,,,,,,,,,,,,,,경성대학교,051-663-5701,2022-11-21,3310000,부산광역시 남구
궁평항,99,경기도,화성시,경기도 화성시 서신면 궁평항로 1069-31,,37.1174028111,126.6814653457,24,0,2021-02-08,2023-02-07,연중무휴,09:00,23:59,09:00,23:59,,,,,,,,,,,,,,,,,,,,,,,,,,경기도 화성시청 위생정책과,031-5189-3045,2022-11-15,5530000,경기도 화성시
제부마리나,08,경기도,화성시,경기도 화성시 서신면 해안길 477,,37.17525159,126.6281605,2,0,2022-04-08,2023-09-28,연중무휴,09:00,23:59,09:00,23:59,,,,,,,,,,,,,,,,,,,,,,,,,,경기도 화성시청 위생정책과,031-5189-3045,2022-11-15,5530000,경기도 화성시
장안휴게소,07,경기도,화성시,경기도 화성시 장안면 평택시흥고속도로 7,,37.09250707,126.8447422993,1,0,2022-01-04,2023-01-08,연중무휴,09:00,23:59,09:00,23:59,,,,,,,,,,,,,,,,,,,,,,,,,,경기도 화성시청 위생정책과,031-5189-3045,2022-11-15,5530000,경기도 화성시
수원대학교,06,경기도,화성시,경기도 화성시 정남면 세자로 288,,37.1920328913,126.9839265343,1,0,2022-03-18,2023-02-21,연중무휴,09:00,23:59,09:00,23:59,,,,,,,,,,,,,,,,,,,,,,,,,,경기도 화성시청 위생정책과,031-5189-3045,2022-11-15,5530000,경기도 화성시
동학산근린공원,04,경기도,화성시,,경기도 화성시 석우동 29-3,37.2206741814,127.0791304845,1,0,2019-01-01,2023-12-31,연중무휴,09:00,23:59,09:00,23:59,,,,,,,,,,,,,,,,,,,,,,,,,,경기도 화성시청 위생정책과,031-5189-3045,2022-11-15,5530000,경기도 화성시
상무시민공원,4,광주광역시,서구,광주광역시 서구 상무공원로 101,광주광역시 서구 치평동 1162,35.15339511,126.8410975,0,연 173940,2021-08-01,2023-07-31,연중무휴,10:00,19:00,10:00,19:00,10:00,17:00,10:00,17:00,10:00,19:00,10:00,19:00,10:00,19:00,10:00,21:00,10:00,21:00,10:00,21:00,10:00,21:00,10:00,19:00,10:00,17:00,10:00,17:00,영업신고 외 품목 판매금지,광주광역시 서구청,062-350-4938,2022-11-21,3600000,광주광역시 서구
공공기관 행사장,99,경기도,광주시,"경기도 광주시 곤지암읍 경충대로 729, 팀업캠퍼스 푸드트럭존",경기도 광주시 곤지암읍 삼리 430 팀업캠퍼스 푸드트럭존,,,1,0,2018-12-07,2023-06-22,연중무휴,00:00,00:00,00:00,00:00,,,,,,,,,,,,,,,,,,,,,,,,,,경기도 광주시,031-760-5939,2022-10-06,5540000,경기도 광주시
아파트,99,경기도,광주시,"경기도 광주시 고불로 87 (태전동, 태전 효성해링턴 플레이스)",경기도 광주시 태전동 705 태전 효성해링턴 플레이스,,,1,0,2022-08-01,2024-07-30,연중무휴,00:00,00:00,00:00,00:00,,,,,,,,,,,,,,,,,,,,,,,,,,경기도 광주시,031-760-5939,2022-10-06,5540000,경기도 광주시
아파트,99,경기도,광주시,"경기도 광주시 고불로 87 (태전동, 태전 효성해링턴 플레이스)",경기도 광주시 태전동 705 태전 효성해링턴 플레이스 정문경비실 옆,,,1,0,2021-10-01,2022-12-31,연중무휴,00:00,00:00,00:00,00:00,,,,,,,,,,,,,,,,,,,,,,,,,,경기도 광주시,031-760-5939,2022-10-06,5540000,경기도 광주시
아파트,99,경기도,광주시,경기도 광주시 초월읍 경충대로 1065 (초월롯데캐슬아파트),경기도 광주시 초월읍 쌍동리 390 초월롯데캐슬아파트,,,1,0,2020-03-18,2020-04-17,연중무휴,00:00,00:00,00:00,00:00,,,,,,,,,,,,,,,,,,,,,,,,,,경기도 광주시,031-760-5939,2022-10-06,5540000,경기도 광주시
아파트,99,경기도,광주시,"경기도 광주시 고불로 87 (태전동, 태전 효성해링턴 플레이스)",경기도 광주시 태전동 705 태전 효성해링턴 플레이스 정문경비실 옆,,,1,0,2021-05-20,2022-05-19,연중무휴,00:00,00:00,00:00,00:00,,,,,,,,,,,,,,,,,,,,,,,,,,경기도 광주시,031-760-5939,2022-10-06,5540000,경기도 광주시
아파트,99,경기도,광주시,"경기도 광주시 고불로 87 (태전동, 태전 효성해링턴 플레이스)",경기도 광주시 태전동 705 태전 효성해링턴 플레이스(정문경비실 옆),,,1,0,2021-03-01,2021-06-30,연중무휴,00:00,00:00,00:00,00:00,,,,,,,,,,,,,,,,,,,,,,,,,,경기도 광주시,031-760-5939,2022-10-06,5540000,경기도 광주시
아파트,99,경기도,광주시,경기도 광주시 곤지암읍 평촌길 20 (킴스빌리지아파트),경기도 광주시 곤지암읍 삼리 125-1 킴스빌리지아파트,,,1,0,2022-03-09,2023-03-08,연중무휴,00:00,00:00,00:00,00:00,,,,,,,,,,,,,,,,,,,,,,,,,,경기도 광주시,031-760-5939,2022-10-06,5540000,경기도 광주시
아파트,99,경기도,광주시,경기도 광주시 초월읍 현산로 69 (대주 피오레),경기도 광주시 초월읍 도평리 259 대주 피오레,,,1,0,2021-05-24,2023-05-16,연중무휴,00:00,00:00,00:00,00:00,,,,,,,,,,,,,,,,,,,,,,,,,,경기도 광주시,031-760-5939,2022-10-06,5540000,경기도 광주시
아파트,99,경기도,광주시,"경기도 광주시 순암로36번길 70 (역동, 이편한세상 광주역 2단지)",경기도 광주시 역동 244 이편한세상 광주역 2단지,,,1,0,2021-06-02,2023-04-20,연중무휴,00:00,00:00,00:00,00:00,,,,,,,,,,,,,,,,,,,,,,,,,,경기도 광주시,031-760-5939,2022-10-06,5540000,경기도 광주시
아파트,99,경기도,광주시,"경기도 광주시 회안대로 637-35 (탄벌동, 경남아너스빌 1단지)",경기도 광주시 탄벌동 765 경남아너스빌 1단지,,,1,0,2022-03-10,2022-09-01,연중무휴,00:00,00:00,00:00,00:00,,,,,,,,,,,,,,,,,,,,,,,,,,경기도 광주시,031-760-5939,2022-10-06,5540000,경기도 광주시
아파트,99,경기도,광주시,"경기도 광주시 회안대로 350-12 (태전동, 태전지웰)",경기도 광주시 태전동 694 태전지웰,,,1,0,2022-06-27,2023-12-31,연중무휴,00:00,00:00,00:00,00:00,,,,,,,,,,,,,,,,,,,,,,,,,,경기도 광주시,031-760-5939,2022-10-06,5540000,경기도 광주시
공공기관 행사장,99,경기도,광주시,"경기도 광주시 곤지암읍 경충대로 727, 광주도자기엑스포장 야외주차장",경기도 광주시 곤지암읍 삼리 72-1 광주도자기엑스포장 야외주차장,,,1,0,2022-08-26,2022-08-28,연중무휴,00:00,00:00,00:00,00:00,,,,,,,,,,,,,,,,,,,,,,,,,,경기도 광주시,031-760-5939,2022-10-06,5540000,경기도 광주시
공공기관 행사장,99,경기도,광주시,"경기도 광주시 곤지암읍 경충대로 727, 광주도자기엑스포장 야외주차장",경기도 광주시 곤지암읍 삼리 72-1 광주도자기엑스포장 야외주차장,,,1,0,2022-08-26,2022-08-28,연중무휴,00:00,00:00,00:00,00:00,,,,,,,,,,,,,,,,,,,,,,,,,,경기도 광주시,031-760-5939,2022-10-06,5540000,경기도 광주시
동해웰빙스포츠타운길,3,강원도,동해시,강원도 동해시 덕골길 10,,37.5160609512,129.1021986249,,월 46970원,2017-03-02,2022-12-31,연중무휴,00:00,23:59,00:00,23:59,,,,,,,,,,,,,,,,,,,,,,,,,,강원도 동해시청,033-539-3500,2022-10-02,4210000,강원도 동해시
쭌스스낵,2,경기도,연천군,,경기도 연천군 연천읍 고문리 산 21,38.0703444092,127.1286007481,1,0,2022-10-05,2024-09-16,없음,00:00,23:59,00:00,23:59,00:00,23:59,00:00,23:59,00:00,23:59,00:00,23:59,00:00,23:59,00:00,23:59,00:00,23:59,00:00,23:59,00:00,23:59,00:00,23:59,00:00,23:59,00:00,23:59,술,경기도 연천군청,031-839-2234,2022-11-04,4140000,경기도 연천군
청양공설운동장,8,충청남도,청양군,충청남도 청양군 청양읍 청산로 257-19,충청남도 청양군 청양읍 백천리 산 69-5,36.4622926,126.8102944,1,연 7150원,2021-07-01,2022-06-30,연중무휴,00:00,23:59,00:00,23:59,,,,,,,,,,,,,,,,,,,,,,,,,,충청남도 청양군청,041-940-2184,2022-11-02,4590000,충청남도 청양군
칠갑산오토캠핑장,8,충청남도,청양군,충청남도 청양군 대치면 까치내로 710,충청남도 청양군 대치면 작천리 30-29,36.39572454,126.863183,1,연 35800원,2021-07-01,2022-06-30,연중무휴,00:00,23:59,00:00,23:59,,,,,,,,,,,,,,,,,,,,,,,,,,충청남도 청양군청,041-940-2184,2022-11-02,4590000,충청남도 청양군
청양군민체육관,8,충청남도,청양군,충청남도 청양군 청양읍 충절로 1204,충청남도 청양군 청양읍 송방리 371,36.45368677,126.7946154,1,연 87400원,2021-07-01,2022-06-30,연중무휴,00:00,23:59,00:00,23:59,,,,,,,,,,,,,,,,,,,,,,,,,,충청남도 청양군청,041-940-2184,2022-11-02,4590000,충청남도 청양군
치즈체험장,8,충청남도,청양군,충청남도 청양군 비봉면 여사길 18-17,충청남도 청양군 비봉면 양사리 산 99,36.48953279,126.7587885,1,0,2018-08-01,2023-07-31,연중무휴,00:00,23:59,00:00,23:59,,,,,,,,,,,,,,,,,,,,,,,,,,충청남도 청양군청,041-940-2184,2022-11-02,4590000,충청남도 청양군
북서울꿈의숲(코로나19로 인한 미개방),4,서울특별시,강북구,서울특별시 강북구 월계로173,서울특별시 강북구 번동 83-2,37.62025563,127.0443254,0,연 19810원,2021-11-02,2022-11-02,일요일,00:00,00:00,00:00,00:00,,,00:00,00:00,00:00,00:00,00:00,00:00,00:00,00:00,00:00,00:00,00:00,00:00,00:00,00:00,00:00,00:00,00:00,00:00,00:00,00:00,,,,북서울꿈의숲,02-2289-4011,2022-09-13,3080000,서울특별시 강북구
의성조문국사적지,04,경상북도,의성군,,경상북도 의성군 금성면 대리리 377 - 2,36.2739594,128.6769328,1,23570원/년(번호2-5),2021-12-10,2024-12-09,연중무휴,00:00,23:59,00:00,23:59,00:00,23:59,00:00,23:59,00:00,23:59,00:00,23:59,00:00,23:59,00:00,23:59,00:00,23:59,00:00,23:59,00:00,23:59,00:00,23:59,00:00,23:59,00:00,23:59,,경상북도 의성군 보건소,054-830-6171,2022-10-11,5150000,경상북도 의성군
독산역 2번출구 앞 광장,8,서울특별시,금천구,서울특별시 금천구 벚꽃로 115(가산동),서울특별시 금천구 가산동 717,37.46598732,126.8895142,3,1584550,2020-04-01,2022-03-31,트럭별 상이,07:00,22:00,07:00,22:00,07:00,22:00,07:00,22:00,07:00,22:00,07:00,22:00,07:00,22:00,07:00,22:00,07:00,22:00,07:00,22:00,07:00,22:00,07:00,22:00,07:00,22:00,07:00,22:00,주류,지역경제과,02-2627-1306,2022-09-07,3170000,서울특별시 금천구
가야진사공원(원동A),5,경상남도,양산시,,경상남도 양산시 원동면 용당리 566,35.3683620243,128.9043933187,1,공시지가(원) × 면적 × 1(년) × 0.015,2021-01-01,2022-12-31,연중무휴,09:00,19:00,09:00,19:00,,,,,,,,,,,,,,,,,,,,,,,,,,양산시,055-392-2823,2022-09-23,5380000,경상남도 양산시
서룡공원(서룡A),5,경상남도,양산시,경상남도 양산시 원동면 뻘등길 185,경상남도 양산시 원동면 서룡리 586-3,35.3373721221,128.9569285754,1,공시지가(원) × 면적 × 1(년) × 0.015,2021-01-01,2022-12-31,연중무휴,09:00,19:00,09:00,19:00,,,,,,,,,,,,,,,,,,,,,,,,,,양산시,055-392-2823,2022-09-23,5380000,경상남도 양산시
서룡공원(서룡B),5,경상남도,양산시,,경상남도 양산시 원동면 서룡리 586-3,35.3373721221,128.9569285754,1,공시지가(원) × 면적 × 1(년) × 0.015,2021-01-01,2022-12-31,연중무휴,09:00,19:00,09:00,19:00,,,,,,,,,,,,,,,,,,,,,,,,,,양산시,055-392-2823,2022-09-23,5380000,경상남도 양산시
황산공원(황산A),5,경상남도,양산시,,경상남도 양산시 물금읍 물금리 640-12,35.3104406739,128.9780632197,1,공시지가(원) × 면적 × 1(년) × 0.015,2021-01-01,2022-12-31,연중무휴,09:00,19:00,09:00,19:00,,,,,,,,,,,,,,,,,,,,,,,,,,양산시,055-392-2823,2022-09-23,5380000,경상남도 양산시
황산공원(황산B),5,경상남도,양산시,,경상남도 양산시 물금읍 물금리 214,35.2980833412,128.9895415315,1,공시지가(원) × 면적 × 1(년) × 0.015,2021-01-01,2022-12-31,연중무휴,09:00,19:00,09:00,19:00,,,,,,,,,,,,,,,,,,,,,,,,,,양산시,055-392-2823,2022-09-23,5380000,경상남도 양산시
황산공원(황산C),5,경상남도,양산시,경상남도 양산시 물금읍 낙동로 295-19,경상남도 양산시 물금읍 물금리 171-4,35.3017308251,128.9895949139,1,공시지가(원) × 면적 × 1(년) × 0.015,2021-08-01,2023-07-31,연중무휴,09:00,19:00,09:00,19:00,,,,,,,,,,,,,,,,,,,,,,,,,,양산시,055-392-2823,2022-09-23,5380000,경상남도 양산시
황산공원(황산D)),5,경상남도,양산시,,경상남도 양산시 물금읍 증산리 1088-1,35.2917822298,129.0005108,1,공시지가(원) × 면적 × 1(년) × 0.015,2021-01-01,2022-12-31,연중무휴,09:00,19:00,09:00,19:00,,,,,,,,,,,,,,,,,,,,,,,,,,양산시,055-392-2823,2022-09-23,5380000,경상남도 양산시
가산공원,5,경상남도,양산시,,경상남도 양산시 동면 가산리 759,35.2942638970,129.0190240180,1,공시지가(원) × 면적 × 1(년) × 0.015,2021-01-01,2022-12-31,연중무휴,09:00,19:00,09:00,19:00,,,,,,,,,,,,,,,,,,,,,,,,,,양산시,055-392-2823,2022-09-23,5380000,경상남도 양산시
공공기관 행사장,99,경기도,광주시,"경기도 광주시 곤지암읍 경충대로 727, 광주도자기엑스포장",경기도 광주시 곤지암읍 삼리 72-1 광주도자기엑스포장,,,1,0,2018-04-27,2018-05-13,연중무휴,09:00,18:00,09:00,18:00,,,,,,,,,,,,,,,,,,,,,,,,,,경기도 광주시,031-760-5939,2022-10-06,5540000,경기도 광주시
공공기관 행사장,99,경기도,광주시,"경기도 광주시 곤지암읍 경충대로 727, 광주도자기엑스포장 대공연장",경기도 광주시 곤지암읍 삼리 72-1 광주도자기엑스포장 대공연장,,,1,0,2018-04-27,2018-05-13,연중무휴,09:00,18:00,09:00,18:00,,,,,,,,,,,,,,,,,,,,,,,,,,경기도 광주시,031-760-5939,2022-10-06,5540000,경기도 광주시
공공기관 행사장,99,경기도,광주시,"경기도 광주시 곤지암읍 경충대로 729, 팀업캠퍼스 푸드트럭존",경기도 광주시 곤지암읍 삼리 430 팀업캠퍼스 푸드트럭존,,,1,0,2018-11-19,2023-06-22,연중무휴,00:00,00:00,00:00,00:00,,,,,,,,,,,,,,,,,,,,,,,,,,경기도 광주시,031-760-5939,2022-10-06,5540000,경기도 광주시
우치공원,4,광주광역시,북구,광주광역시 북구 우치로677(생용동),광주광역시 북구 생용동 산127-2,35.22431388,126.8942421,1,연 60000원,2018-04-19,2024-10-08,평일,10:00,19:00,10:00,19:00,10:00,18:00,10:00,18:00,10:00,18:00,10:00,19:00,10:00,19:00,10:00,19:00,10:00,19:00,10:00,19:00,10:00,18:00,10:00,18:00,10:00,18:00,10:00,18:00,,광주광역시 우치공원,062-613-5860,2022-10-07,6290000,광주광역시
가회면 월계리,99,경상남도,합천군,,경상남도 합천군 가회면 월계리 산88,35.4898083,128.0501257,1,0,2022-05-06,2022-05-15,연중무휴,00:00,23:59,00:00,23:59,,,,,,,,,,,,,,,,,,,,,,,,,,경상남도 합천군청,055-930-3317,2022-10-31,5480000,경상남도 합천군
대병면 회양리,2,경상남도,합천군,,경상남도 합천군 대병면 회양리 700-21,35.5237727,128.0175208,1,699470,2022-07-04,2023-06-30,연중무휴,00:00,23:59,00:00,23:59,,,,,,,,,,,,,,,,,,,,,,,,,,경상남도 합천군청,055-930-3317,2022-10-31,5480000,경상남도 합천군
가야면 가야산로,2,경상남도,합천군,경상남도 합천군 가야면 가야산로 1160,,35.7668038,128.1366952,6,0,2022-10-28,2022-11-13,월+화+수+목+금,00:00,23:59,00:00,23:59,,,,,,,,,,,,,,,,,,,,,,,,,,경상남도 합천군청,055-930-3317,2022-10-31,5480000,경상남도 합천군
의림지 공영주차장,02,충청북도,제천시,충청북도 제천시 모산동 210번지 공영주차장,충청북도 제천시 모산동 210(공영주차장),37.1758154,128.2115132,2,연187570원,2019-06-08,2021-06-07,연중무휴,00:00,23:59,00:00,23:59,,,,,,,,,,,,,,,,,,,,,,,,,식품위생법 시행령 제21조 제8호 가목의 휴게음식점영업 또는 같은 호 바목의 제과점영업 외,충청북도 제천시청,043-641-3182,2022-10-18,4400000,충청북도 제천시
중부선 농다리 졸음쉼터,7,충청북도,진천군,충청북도 진천군 문백면 중부고속도로 31,충청북도 진천군 문백면 구곡리 87,36.8346558,127.4940163,1,0,2020-09-01,2021-08-31,연중무휴,00:00,00:00,00:00,00:00,,,,,,,,,,,,,,,,,,,,,,,,,,진천군,043-539-3423,2022-09-06,4450000,충청북도 진천군
진천(하남)졸음쉼터내,7,충청북도,진천군,충청북도 진천군 초평면 중석3길 14,충청북도 진천군 초평면 중석리 1235,,,1,0,2021-09-04,2022-09-03,연중무휴,00:00,00:00,00:00,00:00,,,,,,,,,,,,,,,,,,,,,,,,,,진천군,043-539-3423,2022-09-06,4450000,충청북도 진천군
진천군체육회 내부장소,7,충청북도,진천군,충청북도 진천군 진천읍 원덕로 166,충청북도 진천군 진천읍 신정리 산 38-1,,,1,0,2021-07-01,2021-12-31,연중무휴,00:00,00:00,00:00,00:00,,,,,,,,,,,,,,,,,,,,,,,,,,진천군,043-539-3423,2022-09-06,4450000,충청북도 진천군
영상강문화공원,4,전라남도,담양군,,전라남도 담양군 담양읍 향교리 271-8,35.32520546,126.987889,2,월 338080원,2020-04-20,2022-04-19,연중무휴,10:00,19:00,10:00,19:00,,,,,,,10:00,19:00,10:00,19:00,10:00,19:00,10:00,19:00,10:00,19:00,10:00,19:00,10:00,19:00,10:00,19:00,10:00,19:00,,전라남도 담양군청,061-380-3308,2022-09-30,4850000,전라남도 담양군
자수정동굴나라,1,울산광역시,울주군,울산광역시 울주군 삼남읍 자수정로 170,울산광역시 울주군 삼남읍 가천리 산 5-1,,,1,년 300000원,2022-01-03,2024-01-02,월+화+수+목+금,00:00,00:00,09:00,18:00,,,,,,,,,,,,,,,,,,,,,,,,,주류,울산광역시 울주군청,052-204-2225,2022-11-16,3730000,울산광역시 울주군
무지개푸드,6,전라남도,장성군,,전라남도 장성군 황룡면 아곡리 342-3,35.31848588,126.7291716,1,0,2019-09-23,2023-09-23,연중무휴,00:00,23:59,00:00,23:59,,,,,,,,,,,,,,,,,,,,,,,,,"커피,담배, 주류",장성군청,061-390-7343,2022-11-01,4980000,전라남도 장성군
군포시장,99,경기도,군포시,"경기도 군포시 군포로538번길 7-3, 건물 앞 도로 (당동)","경기도 군포시 당동 749-41, 건물 앞 도로",37.35407433,126.9468877,1,0,1899-12-30,1899-12-30,연중무휴,00:00,00:00,00:00,00:00,,,,,,,,,,,,,,,,,,,,,,,,,,경기도 군포시청,031-390-0534,2022-10-18,4020000,경기도 군포시
로하스 캠핑테리아,2,경기도,연천군,경기도 연천군 전곡읍 은전로 47,경기도 연천군 전곡읍 은대리 573,38.0280866564,127.0649737792,1,0,2022-09-01,2027-08-31,없음,00:00,23:59,00:00,23:59,00:00,23:59,00:00,23:59,00:00,23:59,00:00,23:59,00:00,23:59,00:00,23:59,00:00,23:59,00:00,23:59,00:00,23:59,00:00,23:59,00:00,23:59,00:00,23:59,술,경기도 연천군청,031-839-2234,2022-11-04,4140000,경기도 연천군
바다야,2,경기도,연천군,,경기도 연천군 연천읍 부곡리 188,38.0769967792,127.1420611557,1,0,2021-09-17,2024-09-16,없음,00:00,23:59,00:00,23:59,00:00,23:59,00:00,23:59,00:00,23:59,00:00,23:59,00:00,23:59,00:00,23:59,00:00,23:59,00:00,23:59,00:00,23:59,00:00,23:59,00:00,23:59,00:00,23:59,술,경기도 연천군청,031-839-2234,2022-11-04,4140000,경기도 연천군
정이네뜰,2,경기도,연천군,,경기도 연천군 연천읍 부곡리 188,38.0769967792,127.1420611557,1,0,2021-09-17,2024-09-16,없음,00:00,23:59,00:00,23:59,00:00,23:59,00:00,23:59,00:00,23:59,00:00,23:59,00:00,23:59,00:00,23:59,00:00,23:59,00:00,23:59,00:00,23:59,00:00,23:59,00:00,23:59,00:00,23:59,술,경기도 연천군청,031-839-2234,2022-11-04,4140000,경기도 연천군
"美, cafe",99,경기도,연천군,,경기도 연천군 연천읍 부곡리 188,38.0769967792,127.1420611557,1,0,2021-09-17,2024-09-16,없음,00:00,23:59,00:00,23:59,00:00,23:59,00:00,23:59,00:00,23:59,00:00,23:59,00:00,23:59,00:00,23:59,00:00,23:59,00:00,23:59,00:00,23:59,00:00,23:59,00:00,23:59,00:00,23:59,술,경기도 연천군청,031-839-2234,2022-11-04,4140000,경기도 연천군
주영카페,2,경기도,연천군,,경기도 연천군 미산면 동이리 778,38.0235032171,126.9854182081,1,0,2022-06-14,2024-06-13,없음,00:00,23:59,00:00,23:59,00:00,23:59,00:00,23:59,00:00,23:59,00:00,23:59,00:00,23:59,00:00,23:59,00:00,23:59,00:00,23:59,00:00,23:59,00:00,23:59,00:00,23:59,00:00,23:59,술,경기도 연천군청,031-839-2234,2022-11-04,4140000,경기도 연천군
동막골 유원지 협동조합,2,경기도,연천군,경기도 연천군 연천읍 동막로 237-168,경기도 연천군 연천읍 동막리 635,38.0976089699,127.1105118549,1,0,2022-08-01,2026-12-31,없음,00:00,23:59,00:00,23:59,00:00,23:59,00:00,23:59,00:00,23:59,00:00,23:59,00:00,23:59,00:00,23:59,00:00,23:59,00:00,23:59,00:00,23:59,00:00,23:59,00:00,23:59,00:00,23:59,술,경기도 연천군청,031-839-2234,2022-11-04,4140000,경기도 연천군
동막골 유원지 협동조합,2,경기도,연천군,경기도 연천군 연천읍 동막로 237-168,경기도 연천군 연천읍 동막리 635,38.0976089699,127.1105118549,1,0,2022-08-01,2026-12-31,없음,00:00,23:59,00:00,23:59,00:00,23:59,00:00,23:59,00:00,23:59,00:00,23:59,00:00,23:59,00:00,23:59,00:00,23:59,00:00,23:59,00:00,23:59,00:00,23:59,00:00,23:59,00:00,23:59,술,경기도 연천군청,031-839-2234,2022-11-04,4140000,경기도 연천군
