육교명,도로종류,도로노선번호,도로노선명,소재지도로명주소,위도,경도,육교연장,육교높이,허용통행하중,통행제한높이,육교폭,난간높이,조명개수,장애인편의시설설치여부,장애인편의시설종류,장애인편의시설수량,부대시설종류,부대시설수량,육교준공일자,내진설계적용여부,안전등급,사용제한구분,육교보수보강내역,최종안전점검유형,최종안전점검일자,관리기관명,데이터기준일자,제공기관코드,제공기관명
우신초교 앞 보도육교,시도,147,신길로,서울특별시 영등포구 신길로 190,37.509263,126.910801,23,4.7,,4.5,3.4,1,8,Y,점자블록+핸드레일 촉지판,24,,,1980-09-18, ,보통,제한없음,,정기점검,2022-04-16,서울특별시 영등포구청,2022-07-04,3180000,서울특별시 영등포구
영등포역 횡단 보도육교,기타,없음,경인선,서울특별시 영등포구 경인로94길 7,37.513895,126.903695,83,,0.5,5.6,3.2,1.8,14,Y,엘리베이터,,,,1974-12-01, ,보통,제한없음,,정기점검,2022-04-16,서울특별시 영등포구청,2022-07-04,3180000,서울특별시 영등포구
문래 보도육교,시도,245,서부간선도로,서울특별시 영등포구 문래로4길 4,37.520246,126.882018,40,5.1,0.5,4.5,4,1.2,,Y,엘리베이터,,,,2006-06-30,Y,양호,제한없음,,정기점검,2022-04-16,서울특별시 영등포구청,2022-07-04,3180000,서울특별시 영등포구
양평1 보도육교,시도,245,서부간선도로,서울특별시 영등포구 양산로 3,37.526193,126.883081,43,5.7,0.5,4.5,4,1.2,,Y,엘리베이터,,,,2006-06-30,Y,양호,제한없음,,정기점검,2022-04-16,서울특별시 영등포구청,2022-07-04,3180000,서울특별시 영등포구
양평2 보도육교,시도,245,서부간선도로,서울특별시 영등포구 양평로21길 26,37.533447,126.891821,45,5.7,0.34,4.5,4,1.2,,Y,엘리베이터,,,,2006-06-30,Y,양호,제한없음,,정기점검,2022-04-16,서울특별시 영등포구청,2022-07-04,3180000,서울특별시 영등포구
도림 보도육교,기타,없음,도림천,서울특별시 영등포구 도영로7길 15,37.508955,126.892771,104.6,,,4.5,2.5,1.2,,Y,턱낮추기,,,,2016-10-31,Y,양호,제한없음,,정기점검,2022-04-16,서울특별시 영등포구청,2022-07-04,3180000,서울특별시 영등포구
선유도 기존보도육교,시도,199,"노들로, 올림픽대로",서울특별시 영등포구 양평로24길 36,37.541546,126.895135,108,,,4.5,4,1,5,Y,엘리베이터,,,,1978-11-30, ,양호,제한없음,,정기점검,2022-04-16,서울특별시 영등포구청,2022-07-04,3180000,서울특별시 영등포구
지방도1042호선 보도육교,지방도,1042호선,선천로,경상남도 김해시 주촌면 선천남로 16,35.2369036,128.8378556,48,,,4.5,3,,,Y,승강기,,,,, ,양호,제한없음,,정기점검,2022-09-01,경상남도 김해시청,2022-11-18,5350000,경상남도 김해시
고현초 통학육교,시도,,계룡로,경상남도 거제시 계룡로 25,34.87372391,128.6288323,60,,,4.6,17.5,,,N,없음,,,,2008-01-01, ,보통,제한없음,,정기점검,2022-10-11,경상남도 거제시청 도로과,2022-12-01,5370000,경상남도 거제시
신현중뒤 육교,일반국도,14호선,서문로1길,경상남도 거제시 서문로1길 17,34.88860912,128.6167069,31.7,,,4.8,3,,,Y,경사로,,,,1998-01-01, ,양호,제한없음,,정기점검,2022-10-11,경상남도 거제시청 도로과,2022-12-01,5370000,경상남도 거제시
양정육교,일반국도,58호선,거제대로,경상남도 거제시 수양로 508-1,34.89197665,128.6358539,,,,4.5,,,,N,없음,,,,1997-08-01, ,양호,제한없음,,정기점검,2022-10-11,경상남도 거제시청 도로과,2022-12-01,5370000,경상남도 거제시
옥포육교,시도,,거제대로,경상남도 거제시 거제대로 3696,34.88722536,128.6931115,30,,,5,2,,,N,없음,,,,2008-01-01, ,보통,제한없음,,정기점검,2022-10-11,경상남도 거제시청 도로과,2022-12-01,5370000,경상남도 거제시
장평육교,일반국도,58호선,장평3로,경상남도 거제시 장평3로 10,34.88944152,128.6094016,104.5,,,4.5,2.5,,,Y,엘리베이터,,,,2008-01-01, ,보통,제한없음,,정기점검,2022-10-11,경상남도 거제시청 도로과,2022-12-01,5370000,경상남도 거제시
중곡동육교,일반국도,58호선,거제대로,경상남도 거제시 중곡로 3,34.89303358,128.6302802,43.7,,,4.7,4,,,Y,엘리베이터,,,,1998-01-01, ,보통,제한없음,,정기점검,2022-10-11,경상남도 거제시청 도로과,2022-12-01,5370000,경상남도 거제시
중흥보도육교,시도,,신흥로,경기도 부천시 신흥로 248,37.50573381,126.7758799,30,,,7,6,,,Y,승강기,,,,1998-04-28, ,양호,제한없음,,정기점검,2021-12-21,경기도 부천시 도로관리과,2022-10-24,3860000,경기도 부천시
한강육교,시도,2-266호선,한강로,대구광역시 북구 사수동 987,35.896916,128.513164,32,5,,4.5,4,,,Y,경사로,,없음,0,2013-07-31, ,양호,제한없음,,정기점검,2022-06-24,대구광역시 북구청,2022-10-28,3450000,대구광역시 북구
동부초교 보도육교,시도,,호국로,경상북도 영천시 호국로 209,35.97821931,128.9601124,,,,4.5,,,,N,N,,,,, ,양호,제한없음,,정기점검,2022-06-28,경상북도 영천시청,2022-11-08,5100000,경상북도 영천시
단포초교 보도육교,시도,,호국로,경상북도 영천시 고경면 호국로 343,35.9810174,128.9748400297,,,,5,,,,N,N,,,,, ,양호,제한없음,,정기점검,2022-06-28,경상북도 영천시청,2022-11-08,5100000,경상북도 영천시
장천리보도육교,시도,,참외전로,인천광역시 동구 참외전로245,37.47039456,126.6390423,25.53,7.25,3.367,4.8,2,1.15,0,N,미끄럼방지,,,,2003-12-26,N,양호,제한없음,도장공사+논슬립 교체(2021.05),정기점검,2021-09-16,인천광역시 동구청,2022-11-10,3500000,인천광역시 동구
주원철도,구도,,석정로,인천광역시 남동구 석정로 566번길,37.464795,126.698904,30,,,4.5,5,,,Y,엘레베이터,1,,,1987-01-01, ,양호,제한없음,,정기점검,2021-12-23,인천광역시 남동구청,2022-11-09,3530000,인천광역시 남동구
이화아파트,시도,,경원대로,인천광역시 남동구 경원대로 960,37.468139,126.6905935,28.4,,,4.8,4,,,N,없음,0,,,1993-01-01, ,양호,제한없음,,정기점검,2021-12-23,인천광역시 남동구청,2022-11-09,3530000,인천광역시 남동구
남동정수장,일반국도,42호,백범로,인천광역시 남동구 담방로 105,37.45042788,126.7398942,43.6,,,4.8,4,,,Y,경사로,1,,,1996-01-01, ,양호,제한없음,,정기점검,2021-12-23,인천광역시 남동구청,2022-11-09,3530000,인천광역시 남동구
남동관문교,시도,,인주대로,인천광역시 남동구 소래로 652,37.44730181,126.7347827,118,,,4.7,4,,,Y,경사로,1,,,1997-01-01, ,양호,제한없음,,정기점검,2021-12-23,인천광역시 남동구청,2022-11-09,3530000,인천광역시 남동구
도림,시도,,비류대로,인천광역시 남동구 도리미로 1번길,37.421407,126.729529,43.3,,,5,4,,,Y,경사로,1,,,1998-01-01, ,양호,제한없음,,정기점검,2021-12-23,인천광역시 남동구청,2022-11-09,3530000,인천광역시 남동구
논현1택지,시도,,호구포로,인천광역시 남동구 호구포로 294,37.40983956,126.7134086,39.8,,,5,6,,,Y,경사로,1,,,1998-01-01, ,양호,제한없음,,정기점검,2021-12-23,인천광역시 남동구청,2022-11-09,3530000,인천광역시 남동구
운연동 육교,일반국도,42호,수인로,인천광역시 남동구 수인로 3548,37.44354495,126.7656959,30.5,,,4.8,4,,,Y,경사로,1,,,2000-01-01, ,양호,제한없음,,정기점검,2021-12-23,인천광역시 남동구청,2022-11-09,3530000,인천광역시 남동구
신월초교,시도,,인주대로,인천광역시 인주대로 781,37.449083,126.723996,29.5,,,5.2,4,,,Y,경사로,1,,,2003-01-01, ,양호,제한없음,,정기점검,2021-12-23,인천광역시 남동구청,2022-11-09,3530000,인천광역시 남동구
논현2택지1보도육교,시도,,은봉로,인천광역시 남동구 은봉로 288,37.40399921,126.7227649,130,,,4.5,4,,,Y,경사로,1,,,2006-01-01, ,양호,제한없음,,정기점검,2021-12-23,인천광역시 남동구청,2022-11-09,3530000,인천광역시 남동구
논현(소래초),시도,,청능대로,인천광역시 남동구 청능대로 718번길 31,37.40554215,126.7362082,150,,,4.5,2.8,,,Y,경사로,1,,,2007-01-01, ,양호,제한없음,,정기점검,2021-12-23,인천광역시 남동구청,2022-11-09,3530000,인천광역시 남동구
양동보도육교,기타,,경의중앙선,,37.41962621,127.7550837,50,7,15,5,4,1.5,3,N,없음,0,없음,0,2009-12-30,N,양호,제한없음,바닥+시설물 보수,정기점검,2022-10-12,경기도 양평군청,2022-11-28,4170000,경기도 양평군
논현택지2보도육교,시도,,은봉로,인천광역시 남동구 논현로 17,37.40360418,126.7088091,92,,,4.5,4,,,Y,엘레베이터,1,,,2009-01-01, ,양호,제한없음,,정기점검,2021-12-23,인천광역시 남동구청,2022-11-09,3530000,인천광역시 남동구
해안도로,구도,,아암대로,인천광역시 남동구 아암대로 1239,37.384457,126.7052872,80,,,4.5,3,,,Y,엘레베이터,1,,,2010-01-01, ,양호,제한없음,,정기점검,2021-12-23,인천광역시 남동구청,2022-11-09,3530000,인천광역시 남동구
승기천 횡단,구도,,승기천로,인천광역시 남동구 남동서로 205번길 32,37.4109351,126.6894333,110,,,4.5,3,,,N,없음,0,,,2010-01-01, ,양호,제한없음,,정기점검,2021-12-23,인천광역시 남동구청,2022-11-09,3530000,인천광역시 남동구
세상2보도교,시도,,해운대로,부산광역시 해운대구 좌동순환로 280,35.17074922,129.1794054,36.8,,,5,4.9,,,N,없음,,,,1996-01-01,N,양호,제한없음,,정기점검,2022-07-08,부산광역시 해운대구,2022-11-18,3330000,부산광역시 해운대구
세상1보도교,시도,,좌동로,부산광역시 해운대구 좌동로 126,35.17309632,129.175166,32,,,5,4.9,,,N,없음,,,,1996-01-01,N,양호,제한없음,,정기점검,2022-07-08,부산광역시 해운대구,2022-11-18,3330000,부산광역시 해운대구
중앙보도교,시도,,양운로,부산광역시 해운대구 양운로 176,35.17764981,129.1684825,31.5,,,5,4.9,,,Y,경사로,,,,1996-01-01,N,양호,제한없음,,정기점검,2022-07-08,부산광역시 해운대구,2022-11-18,3330000,부산광역시 해운대구
해강초등육교,시도,,해운대로 452번길,부산광역시 해운대구 해운대해변로 73,35.16426707,129.1345476,25,,,5,3,,,N,없음,,,,1997-01-01,N,양호,제한없음,,정기점검,2022-07-08,부산광역시 해운대구,2022-11-18,3330000,부산광역시 해운대구
무지개다리,시도,,양운로,부산광역시 해운대구 대천로103번길 29,35.17536901,129.1690365,64,,,5,3,,,N,없음,,,,1996-01-01,N,양호,제한없음,,정기점검,2022-07-08,부산광역시 해운대구,2022-11-18,3330000,부산광역시 해운대구
춘천1 보도교,시도,,양운로,부산광역시 해운대구 양운로 176,35.17782916,129.1685312,30,,,5,4,,,N,없음,,,,1996-01-01,N,양호,제한없음,,정기점검,2022-07-08,부산광역시 해운대구,2022-11-18,3330000,부산광역시 해운대구
춘천2 보도교,시도,,좌동순환로,부산광역시 해운대구 좌동순환로 118,35.17538631,129.1680712,30,,,5,4,,,N,없음,,,,1996-01-01,N,양호,제한없음,,정기점검,2022-07-08,부산광역시 해운대구,2022-11-18,3330000,부산광역시 해운대구
나무를 타는 아이,시도,,해운대로,부산광역시 해운대구 해운대로 428,35.16557349,129.1381373,109.2,,,6,3.3,,,Y,엘리베이터,,,,2002-01-01,N,양호,제한없음,,정기점검,2022-07-08,부산광역시 해운대구,2022-11-18,3330000,부산광역시 해운대구
문화회관보도육교,구도,,서달로,인천광역시 서구 서달로 190,37.515017,126.6799321,17,5,,5.2,4,2,14,Y,경사로,2,N,0,1998-07-31,N,보통,제한없음,,정기점검,2019-05-17,인천광역시 서구,2022-07-20,3560000,인천광역시 서구
한신빌리지보도육교,시도,,서곶로,인천광역시 서구 서곶로 12,37.520034,126.681253,19,5,,5,4,1.5,10,Y,경사로,2,N,0,1998-07-31,N,보통,제한없음,,정기점검,2019-05-17,인천광역시 서구,2022-07-20,3560000,인천광역시 서구
백석초교앞보도육교,시도,,서곶로,인천광역시 서구 서곶로 670,37.577733,126.675285,30,5.5,,5.2,4,2,18,N,없음,,N,0,1996-07-31,N,보통,제한없음,,정기점검,2019-05-17,인천광역시 서구,2022-07-20,3560000,인천광역시 서구
당하보도육교,시도,,원당대로,인천광역시 서구 마전동 산 196-7,37.594599,126.687675,33,5,,4.6,6,2,13,Y,경사로,2,N,0,2005-07-31,N,보통,제한없음,,정기점검,2019-05-17,인천광역시 서구,2022-07-20,3560000,인천광역시 서구
원당보도육교,시도,,원당대로,인천광역시 서구 당하동 314-7,37.592208,126.704381,32,5,,4.5,4,1.5,3,Y,경사로,2,N,0,2006-07-31,N,보통,제한없음,,정기점검,2019-05-17,인천광역시 서구,2022-07-20,3560000,인천광역시 서구
검단초교앞보도육교,시도,,검단로,인천광역시 서구 마전동 316-5,37.609398,126.670269,31,5,,4.5,3,1.5,14,Y,경사로,2,N,0,2006-07-31,N,보통,제한없음,,정기점검,2019-05-17,인천광역시 서구,2022-07-20,3560000,인천광역시 서구
충민교,시도,,경제로,인천광역시 서구 청라동 112-34,37.53603023,126.6548661,71.6,5.5,,4.5,8.1,1.5,140,Y,경사로 및 엘리베이터,3,N,0,2012-06-30,Y,보통,제한없음,,정밀점검,2019-06-18,인천광역시 서구,2022-07-20,3560000,인천광역시 서구
장경교,시도,,청중로,인천광역시 서구 청라라임로16번길18,37.529964,126.654881,83.4,5.5,,4.5,8.1,1.5,208,Y,경사로 및 엘리베이터,3,N,0,2012-06-30,Y,보통,제한없음,,정밀점검,2019-06-18,인천광역시 서구,2022-07-20,3560000,인천광역시 서구
장숙교,시도,,경제로,인천광역시 서구 청라루미로134번길 6-32,37.536123,126.642651,40,5.5,,4.5,7.8,1.5,154,Y,경사로 및 엘리베이터,3,N,0,2012-06-30,Y,보통,제한없음,,정밀점검,2019-06-18,인천광역시 서구,2022-07-20,3560000,인천광역시 서구
교동택지육교,시도,,교동광장로,강원도 강릉시 교동 1916,37.76463753,128.8769489,73,7.2,,4.3,5,1.2,,Y,경사로,,,,,N,양호,제한없음,,정기점검,2022-05-12,강원도 강릉시청,2022-12-05,4200000,강원도 강릉시
유천육교,시도,,선수촌로,강원도 강릉시 유천동 788,37.76001124,128.8711276,38,4.7,,4.3,4.62,1,,Y,점자블럭,1,엘리베이터,2,,N,양호,제한없음,,정기점검,2022-05-12,강원도 강릉시청,2022-12-05,4200000,강원도 강릉시
구산동 보도육교,일반국도,58호선,김해대로,경상남도 김해시 김해대로 1960,35.252044,128.867447,44,,,4.8,3,,,Y,승강기,,,,, ,양호,제한없음,,정기점검,2022-04-01,경상남도 김해시청,2022-11-18,5350000,경상남도 김해시
조은금강병원앞 보도육교,일반국도,58호선,김해대로,경상남도 김해시 김해대로 1806,35.264838,128.863084,30.7,,,5,3,,,Y,승강기,,,,, ,양호,제한없음,,정기점검,2022-04-01,경상남도 김해시청,2022-11-18,5350000,경상남도 김해시
부영6차아파트앞 보도육교,일반국도,58호선,김해대로,경상남도 김해시 삼계중앙로5번길 1-10,35.260544,128.865325,33.9,,,5,3,,,Y,승강기,,,,, ,양호,제한없음,,정기점검,2022-04-01,경상남도 김해시청,2022-11-18,5350000,경상남도 김해시
우암초등학교앞 보도육교,일반국도,58호선,금관대로,경상남도 김해시 평전로 192,35.2443587537,128.8642616843,22.7,,,5,3,,,Y,승강기,,,,, ,양호,제한없음,,정기점검,2022-04-01,경상남도 김해시청,2022-11-18,5350000,경상남도 김해시
금산초등학교앞 보도육교,일반국도,14호선,김해대로,경상남도 김해시 진영읍 김해대로 44,35.2917211513,128.7078957042,24,,,4.7,3.5,,,N,없음,,,,, ,양호,제한없음,,정기점검,2022-04-01,경상남도 김해시청,2022-11-18,5350000,경상남도 김해시
건지보도육교,시도,,인천대로,인천광역시 서구 가석로 54,37.491498,126.675333,152,5.6,,5.5,4,2,11,Y,경사로,2,N,0,2003-07-31,N,보통,제한없음,,정기점검,2019-05-17,인천광역시 서구,2022-07-20,3560000,인천광역시 서구
가좌보도육교,시도,,인천대로,인천광역시 서구 가석로126번안길 2,37.495707,126.675578,90,5.6,,4.7,4,2,4,Y,경사로,2,N,0,1996-07-31,N,보통,제한없음,,정기점검,2019-05-17,인천광역시 서구,2022-07-20,3560000,인천광역시 서구
거북시장보도육교,시도,,인천대로,인천광역시 서구 가석로 206,37.503022,126.676031,74,5.6,,5.3,4,2,66,Y,경사로,2,N,0,1998-07-31,N,보통,제한없음,,정기점검,2019-05-17,인천광역시 서구,2022-07-20,3560000,인천광역시 서구
석남보도육교,시도,,인천대로,인천광역시 서구 가석로 257,37.509741,126.676415,52.5,5.6,,4.6,5,2,3,Y,경사로,2,N,0,1991-07-31,N,미흡,제한없음,,정기점검,2019-05-17,인천광역시 서구,2022-07-20,3560000,인천광역시 서구
네개동보도육교,시도,,인천대로,인천광역시 서구 서달로 163,37.513385,126.676626,63,5.6,,5.6,4,2,13,Y,경사로,2,N,0,1996-07-31,N,보통,제한없음,,정기점검,2019-05-17,인천광역시 서구,2022-07-20,3560000,인천광역시 서구
콜롬비아보도육교,시도,,인천대로,인천광역시 서구 가석로 368,37.517452,126.677363,49,5.6,,5.1,6,2,11,Y,경사로,2,N,0,1992-07-31,N,미흡,제한없음,,정기점검,2019-05-17,인천광역시 서구,2022-07-20,3560000,인천광역시 서구
서인천IC보도육교,시도,,인천대로,인천광역시 서구 서곶로 12,37.522883,126.684063,108,5.6,,6.1,4,2,,Y,경사로,2,N,0,1992-07-31,N,보통,제한없음,,정기점검,2019-05-17,인천광역시 서구,2022-07-20,3560000,인천광역시 서구
원적산터널보도육교,구도,,서달로,인천광역시 서구 서달로 77,37.505917,126.678566,75,5,,4.5,4,1.5,8,Y,경사로,4,N,0,2004-07-31,N,양호,제한없음,,정기점검,2019-05-17,인천광역시 서구,2022-07-20,3560000,인천광역시 서구
곤지암육교,시도,23번,경충대로,경기도 광주시 곤지암읍 곤지암리 333-4,37.347185,127.348506,28,5.5,,4.5,3,,,N,없음,,없음,0,2003-09-01,N,양호,제한없음,없음,정기점검,2018-11-02,경기도 광주시청,2022-11-01,5540000,경기도 광주시
삼동역육교,시도,23번,경충대로,경기도 광주시 삼동 산 1-4,37.409177,127.204865,38,5.7,,4.7,2,,,N,없음,,엘리베이터,2,2016-12-31,Y,양호,제한없음,없음,정기점검,2018-11-02,경기도 광주시청,2022-11-01,5540000,경기도 광주시
상관육교,일반국도,17호선,춘향로,전라북도 완주군 상관면 용암리 307-2,35.71448682,127.2363649,,,,4.8,,,,N,없음,,,,, ,양호,제한없음,,정기점검,2016-11-15,전주국토관리사무소,2022-11-24,4720000,전라북도 완주군
용진육교,일반국도,17호선,완주로,전라북도 완주군 용진읍 운곡리 975-54,35.90540522,127.1568122,,,,4.8,,,,N,없음,,,,, ,양호,제한없음,,정기점검,2016-11-15,전주국토관리사무소,2022-11-24,4720000,전라북도 완주군
소양육교,일반국도,26호선,전진로,전라북도 완주군 소양면 해월리 799-2,35.85608006,127.2557269,,,,4.8,,,,N,없음,,,,, ,양호,제한없음,,정기점검,2016-11-15,전주국토관리사무소,2022-11-24,4720000,전라북도 완주군
은하육교,지방도,799호선,봉동로,전라북도 완주군 봉동읍 은하리 1052-1,35.95522667,127.1437354,,,,4.8,,,,N,없음,,,,, ,양호,제한없음,,정기점검,2016-11-15,전라북도 도로관리사업소,2022-11-24,4720000,전라북도 완주군
봉동육교,지방도,799호선,삼봉로,전라북도 완주군 봉동읍 장기리 708-1,35.93817305,127.1601888,,,,4.8,,,,N,없음,,,,, ,양호,제한없음,,정기점검,2016-11-15,전라북도 도로관리사업소,2022-11-24,4720000,전라북도 완주군
석전육교,지방도,799호선,삼봉로,전라북도 완주군 삼례읍 석전리 753-5,35.92108775,127.1044345,,,,4.8,,,,N,없음,,,,, ,양호,제한없음,,정기점검,2016-11-15,전라북도 도로관리사업소,2022-11-24,4720000,전라북도 완주군
갈산하늘다리(보도육교),지방도,713호선,이서남로,전라북도 완주군 이서면 금평리 788,35.8190696,127.0441221,,,,4.8,,,,Y,승강기,,,,, ,양호,제한없음,,정기점검,2022-11-07,전라북도 완주군 도로교통과,2022-11-24,4720000,전라북도 완주군
호수공원육교,시도,,광교호수로,경기도 수원시 영통구 광교호수로152번길 80,37.27831028,127.0681819,109,6,,5,4.5,,,Y,엘리베이터+경사로,,,,, ,양호,제한없음,,정기점검,2021-05-28,경기도 수원시 영통구청,2022-09-30,3740000,경기도 수원시
수원역고가육교,시도,,덕영대로,경기도 수원시 권선구 덕영대로 960,37.26295993,127.0024333,38,5,,5,4,,,N,없음,,,,, ,보통,제한없음,,정기점검,2021-05-21,경기도 수원시 권선구청,2022-09-30,3740000,경기도 수원시
푸른숲육교,시도,,칠보로,경기도 수원시 권선구 칠보로 102,37.26579489,126.9504993,45,,,4.3,6,,,Y,경사로,,,,, ,양호,제한없음,,정기점검,2021-05-21,경기도 수원시 권선구청,2022-09-30,3740000,경기도 수원시
참나래육교,시도,,금곡로,경기도 수원시 권선구 금곡로140번길 29,37.27202406,126.9457173,45,,,4.8,20,,,Y,경사로,,,,, ,양호,제한없음,,정기점검,2021-05-21,경기도 수원시 권선구청,2022-09-30,3740000,경기도 수원시
가온육교,시도,,금곡로,경기도 수원시 권선구 금곡로 126,37.2736145,126.9444852,40,,,4,7,,,Y,경사로,,,,, ,양호,제한없음,,정기점검,2021-05-21,경기도 수원시 권선구청,2022-09-30,3740000,경기도 수원시
자전거횡단육교1,시도,,금곡로,경기도 수원시 권선구 서수원로 533-40,37.2769853,126.9490094,15,,,2.5,5,,,N,없음,,,,, ,양호,제한없음,,정기점검,2021-05-21,경기도 수원시 권선구청,2022-09-30,3740000,경기도 수원시
자전거횡단육교2,시도,,매곡로,경기도 수원시 권선구 매곡로 43,37.26972344,126.9517635,15,,,2.5,5,,,N,없음,,,,, ,양호,제한없음,,정기점검,2021-05-21,경기도 수원시 권선구청,2022-09-30,3740000,경기도 수원시
자전거횡단육교3,시도,,호매실로,경기도 수원시 권선구 호매실로165번길 70,37.26014366,126.9520027,15,,,2.5,5,,,N,없음,,,,, ,양호,제한없음,,정기점검,2021-05-21,경기도 수원시 권선구청,2022-09-30,3740000,경기도 수원시
달맞이육교,시도,,덕영대로,경기도 수원시 권선구 덕영대로1190번길 100,37.24469709,127.0194352,28,,,2.5,3.5,,,N,없음,,,,, ,양호,제한없음,,정기점검,2021-05-21,경기도 수원시 권선구청,2022-09-30,3740000,경기도 수원시
서호육교,시도,,덕영대로,경기도 수원시 팔달구 덕영대로735번길 18,37.28135952,126.9925868,100,,,7,3,,,Y,경사로,,,,, ,보통,제한없음,,정기점검,2021-04-24,경기도 수원시 팔달구청,2022-09-30,3740000,경기도 수원시
정천정문육교,시도,,일월천로,경기도 수원시 장안구 일월천로 77,37.2868358,126.9777941,28.4,5,,4.5,4,,,Y,경사로,,,,, ,보통,제한없음,,정기점검,2021-04-24,경기도 수원시 팔달구청,2022-09-30,3740000,경기도 수원시
정천후문육교,시도,,정자천로,경기도 수원시 팔달구 정자천로14번길 6-2,37.2884214,126.9790385,58.1,5,,4.5,3,,,Y,경사로,,,,, ,보통,제한없음,,정기점검,2021-04-24,경기도 수원시 팔달구청,2022-09-30,3740000,경기도 수원시
애경육교,일반국도,43번,덕영대로,경기도 수원시 팔달구 덕영대로 923-10,37.2659137,127.0016871,33.2,5,,5,4,,,Y,엘리베이터,,,,, ,보통,제한없음,,정기점검,2021-04-24,경기도 수원시 팔달구청,2022-09-30,3740000,경기도 수원시
효성육교,시도,,월드컵로,경기도 수원시 팔달구 월드컵로 256,37.28347335,127.0393624,184,5,,4.8,4.4,,,Y,경사로,,,,, ,보통,제한없음,,정기점검,2021-04-24,경기도 수원시 팔달구청,2022-09-30,3740000,경기도 수원시
창룡육교,시도,,경수대로,경기도 수원시 팔달구 경수대로692번길 7,37.28720316,127.0269927,35.8,5,,5,3.4,,,Y,경사로,,,,, ,보통,제한없음,,정기점검,2021-04-24,경기도 수원시 팔달구청,2022-09-30,3740000,경기도 수원시
청소년육교,시도,,권광로,경기도 수원시 영통구 권광로 302,37.2739591,127.0371102,80,5,,4.5,8,,,Y,경사로,,,,, ,양호,제한없음,,정기점검,2021-04-24,경기도 수원시 팔달구청,2022-09-30,3740000,경기도 수원시
인도래교,시도,,권광로,경기도 수원시 팔달구 권광로 243,37.26931703,127.034412,50,5,,5,5,,,Y,경사로,,,,, ,양호,제한없음,,정기점검,2021-04-24,경기도 수원시 팔달구청,2022-09-30,3740000,경기도 수원시
효원육교,시도,,동수원로,경기도 수원시 팔달구 동수원로 335,37.25939225,127.0364507,67.8,5,,4.8,4.5,,,Y,엘리베이터,,,,, ,양호,제한없음,,정기점검,2021-04-24,경기도 수원시 팔달구청,2022-09-30,3740000,경기도 수원시
큰말육교(청명육교),시도,,청명로,경기도 수원시 영통구 청명로 130,37.25686099,127.0744662,54.9,6.4,,4.8,5.4,,,Y,경사로,,,,, ,보통,제한없음,,정기점검,2021-05-28,경기도 수원시 영통구청,2022-09-30,3740000,경기도 수원시
신나무실육교,시도,,매영로,경기도 수원시 영통구 매영로 346,37.25149899,127.0702949,54.4,6,,4.8,5.4,,,Y,엘리베이터+에스컬레이터,,,,, ,보통,제한없음,,정기점검,2021-05-28,경기도 수원시 영통구청,2022-09-30,3740000,경기도 수원시
황골육교,시도,,봉영로,경기도 수원시 영통구 봉영로 1763,37.2664538,127.081651,58.4,6,,4.8,5.4,,,Y,경사로,,,,, ,보통,제한없음,,정기점검,2021-05-28,경기도 수원시 영통구청,2022-09-30,3740000,경기도 수원시
느티나무육교,시도,,봉영로,경기도 수원시 영통구 봉영로 1598,37.25331525,127.0739335,61,6,,4.8,30.3,,,N,없음,,,,, ,보통,제한없음,,정기점검,2021-05-28,경기도 수원시 영통구청,2022-09-30,3740000,경기도 수원시
효사랑육교,시도,,효원로,경기도 수원시 영통구 효원로 363,37.26153322,127.0395242,76,6.5,,5,4.6,,,Y,경사로,,,,, ,양호,제한없음,,정기점검,2021-05-28,경기도 수원시 영통구청,2022-09-30,3740000,경기도 수원시
망포육교,시도,,봉영로,경기도 수원시 영통구 봉영로 1432-25,37.24116294,127.0653941,40,7.2,,4.5,13.2,,,Y,점자블록,,,,, ,보통,제한없음,,정기점검,2021-05-28,경기도 수원시 영통구청,2022-09-30,3740000,경기도 수원시
먼내보도교,시도,,중부대로,경기도 수원시 영통구 중부대로448번길 28,37.26713882,127.058579,35.27,3.5,,2.5,3,,,N,없음,,,,, ,보통,제한없음,,정기점검,2021-05-28,경기도 수원시 영통구청,2022-09-30,3740000,경기도 수원시
소화육교,시도,,광교중앙로,경기도 수원시 영통구 광교중앙로37번길 47,37.27814864,127.0513981,50,6.5,,5,4.5,,,Y,엘리베이터,,,,, ,양호,제한없음,,정기점검,2021-05-28,경기도 수원시 영통구청,2022-09-30,3740000,경기도 수원시
웰빙센터앞 보도육교,일반국도,7번,동해대로,강원도 동해시 동해대로,37.515011,129.1041113,13.58,5,,4.5,4,,,Y,경사로,1,,,2002-07-01,N,양호,제한없음,,정기점검,2021-11-03,강원도 동해시,2022-10-07,4210000,강원도 동해시
동호보도육교,지방도,3-15번,발한로,강원도 동해시 발한로 102,37.5413148,129.102151,28,5,,4.5,4,,,N,없음,,,,1994-07-01,N,양호,제한없음,,정기점검,2021-11-03,강원도 동해시,2022-10-07,4210000,강원도 동해시
천곡보도육교,일반국도,7번,동해대로,강원도 동해시 동해대로,37.527552,129.105132,32,5,,4.5,4,,,N,없음,,,,1992-07-01,N,양호,제한없음,,정기점검,2021-11-03,강원도 동해시,2022-10-07,4210000,강원도 동해시
다수육교,일반국도,국4호,영남대로,경상북도 김천시 영남대로 1286,36.126111,128.077782,32.1,5,0,5,3.5,0,0,N,없음,0,없음,0,,N,보통,제한없음,없음,정기점검,2021-09-09,경상북도 김천시청,2022-09-23,5060000,경상북도 김천시
지좌2육교,일반국도,국4호,영남대로,경상북도 김천시 영남대로 1996-4,36.118764,128.147093,30,5.2,0,4.9,3.4,3,0,N,없음,0,없음,0,2014-03-19,N,보통,제한없음,없음,정기점검,2021-09-09,경상북도 김천시청,2022-09-23,5060000,경상북도 김천시
신촌육교,지방도,지방도514호,아포대로,경상북도 김천시 신촌길 170-3,36.141117,128.116673,95,5,0,5,2,0,0,N,없음,0,없음,0,,N,보통,제한없음,없음,정기점검,2021-09-09,경상북도 김천시청,2022-09-23,5060000,경상북도 김천시
신음육교,시도,,시청로,경상북도 김천시 시청로 148,36.125354,128.169147,32.1,5,0,5,3.5,0,0,N,없음,0,없음,0,,N,보통,제한없음,없음,정기점검,2021-09-09,경상북도 김천시청,2022-09-23,5060000,경상북도 김천시
평화육교,일반국도,국4호,김천로,경상북도 김천시 김천로 119,36.122942,128.115125,240,7.5,0,10,3.5,0,0,Y,승강기,2,없음,0,1994-09-12,N,보통,제한없음,없음,정기점검,2021-11-11,경상북도 김천시청,2022-09-23,5060000,경상북도 김천시
신기육교,기타,,시청7길,경상북도 김천시 신음동 920-3,36.135036,128.113991,32.8,10.8,0,10,5,0,0,Y,승강기,2,없음,0,2021-09-30,N,보통,제한없음,없음,정기점검,2021-09-30,경상북도 김천시청,2022-09-23,5060000,경상북도 김천시
대평육교,시도,,만석로,경기도 수원시 장안구 만석로68번길 7,37.29743078,126.9898152,35,5,,5,4,,,Y,경사로,,,,, ,보통,제한없음,,정기점검,2021-06-21,경기도 수원시 장안구청,2022-09-30,3740000,경기도 수원시
연꽃육교,시도,,정자천로,경기도 수원시 장안구 정자천로 187,37.2965283,126.9954537,35,5,,5,4,,,Y,경사로,,,,, ,보통,제한없음,,정기점검,2021-06-21,경기도 수원시 장안구청,2022-09-30,3740000,경기도 수원시
sk보행육교,시도,,이목로,경기도 수원시 장안구 이목로 24-25,37.3095764,126.9864004,66.3,5,,4.8,6,,,Y,엘리베이터,,,,, ,양호,제한없음,,정기점검,2021-06-21,경기도 수원시 장안구청,2022-09-30,3740000,경기도 수원시
천천보행육교,시도,,정자로,경기도 수원시 장안구 정자로42번길 52,37.29877142,126.981574,72,6,,6,3.5,,,Y,엘리베이터,,,,, ,보통,제한없음,,정기점검,2021-06-21,경기도 수원시 장안구청,2022-09-30,3740000,경기도 수원시
고색육교,일반국도,43번,매송고색로,경기도 수원시 권선구 매송고색로 681,37.25156123,126.9783835,30,5,,5,4,,,N,없음,,,,, ,양호,제한없음,,정기점검,2021-05-21,경기도 수원시 권선구청,2022-09-30,3740000,경기도 수원시
효정육교,시도,,동수원로,경기도 수원시 권선구 동수원로285번길 5,37.25513574,127.0349022,34.6,,,5,4,,,Y,경사로,,,,, ,보통,제한없음,,정기점검,2021-05-21,경기도 수원시 권선구청,2022-09-30,3740000,경기도 수원시
구운육교,일반국도,42번,구운로,경기도 수원시 권선구 구운로14번길 42,37.27874842,126.9758428,53.5,5,,4.8,4,,,Y,경사로,,,,, ,보통,제한없음,,정기점검,2021-05-21,경기도 수원시 권선구청,2022-09-30,3740000,경기도 수원시
농수산물센터육교,일반국도,42번,수인로,경기도 수원시 권선구 수인로 330,37.2857316,126.9687174,44.5,5,,5,4,,,Y,엘리베이터,,,,, ,보통,제한없음,,정기점검,2021-05-21,경기도 수원시 권선구청,2022-09-30,3740000,경기도 수원시
서수원육교,일반국도,42번,수인로,경기도 수원시 권선구 수인로 291,37.28262997,126.9701183,50,5,,5,4,,,Y,엘리베이터,,,,, ,보통,제한없음,,정기점검,2021-05-21,경기도 수원시 권선구청,2022-09-30,3740000,경기도 수원시
궁촌육교,시도,,덕영대로,경기도 수원시 권선구 덕영대로1323번길 26-14,37.24687115,127.0362901,65,5,,5,5.5,,,Y,경사로+엘리베이터,,,,, ,보통,제한없음,,정기점검,2021-05-21,경기도 수원시 권선구청,2022-09-30,3740000,경기도 수원시
권선3지구육교,시도,,동탄원천로,경기도 수원시 권선구 동탄원천로813번길 16,37.24853085,127.0388384,84,5,,4.8,5,,,Y,경사로,,,,, ,보통,제한없음,,정기점검,2021-05-21,경기도 수원시 권선구청,2022-09-30,3740000,경기도 수원시
상구운육교,시도,,서부로,경기도 수원시 권선구 서부로 1937,37.28301082,126.9667019,56,5,,5,4,,,Y,엘리베이터,,,,, ,보통,제한없음,,정기점검,2021-05-21,경기도 수원시 권선구청,2022-09-30,3740000,경기도 수원시
오현육교,시도,,서수원로,경기도 수원시 권선구 서수원로 220,37.24655721,126.9684672,21,5,,4,4,,,Y,엘리베이터,,,,, ,양호,제한없음,,정기점검,2021-05-21,경기도 수원시 권선구청,2022-09-30,3740000,경기도 수원시
솔대육교,시도,,오목천로,경기도 수원시 권선구 오목천로152번길 45,37.2430291,126.9784643,34,5,,4,3,,,Y,엘리베이터,,,,, ,양호,제한없음,,정기점검,2021-05-21,경기도 수원시 권선구청,2022-09-30,3740000,경기도 수원시
벌터보도육교,시도,,세화로,경기도 수원시 권선구 세화로161번길 6,37.26631532,126.993018,53,5,,5,3.8,,,Y,엘리베이터,,,,, ,양호,제한없음,,정기점검,2021-05-21,경기도 수원시 권선구청,2022-09-30,3740000,경기도 수원시
동그라미육교,시도,,덕영대로,경기도 수원시 권선구 덕영대로 1357,37.2455422,127.0388226,234,5,,5,3.4,,,Y,엘리베이터,,,,, ,양호,제한없음,,정기점검,2021-05-21,경기도 수원시 권선구청,2022-09-30,3740000,경기도 수원시
우림아파트앞 육교,일반국도,1호선,경기대로,경기도 오산시 경기대로 74,37.131121,127.072106,33,3,,3,3,1.2,,Y,경사로,,,,2005-01-01,N,양호,제한없음,,정기점검,2019-12-28,경기도 오산시청,2022-09-13,4000000,경기도 오산시
가수초등학교앞 육교,기타,,가수로,경기도 오산시 가수로 50,37.147519,127.048101,17,4,,4,4,1.2,,Y,경사로,,,,2006-01-01,N,양호,제한없음,,정기점검,2019-12-28,경기도 오산시청,2022-09-13,4000000,경기도 오산시
오산천 횡단 보도육교,기타,,오산천로,경기도 오산시 청학로 48,37.152578,127.064301,140,5,,5,5,1.2,,N,없음,,,,2007-01-01,N,양호,제한없음,,정기점검,2019-12-28,경기도 오산시청,2022-09-13,4000000,경기도 오산시
고현초등학교앞 보도육교,지방도,310호선,시도,경기도 오산시 남부대로 459,37.132856,127.085193,26.76,3.5,,3.5,3.5,1.2,,Y,경사로,,,,2009-01-01,N,양호,제한없음,,정기점검,2019-12-28,경기도 오산시청,2022-09-13,4000000,경기도 오산시
세교파출소앞 보도육교,기타,,수목원로,경기도 오산시 세마역로 5,37.180454,127.043843,56.1,4,,4,4,1.2,,Y,승강기점자블럭,2,,,2011-01-01,N,양호,제한없음,승강기보수,정기점검,2019-12-28,경기도 오산시청,2022-09-13,4000000,경기도 오산시
금암초앞 보도육교(8단지 옆),기타,,수목원로,경기도 오산시 수청로 204-20,37.178713,127.045499,39,4,,4,4,1.2,,Y,승강기점자블럭,2,,,2010-01-01,N,양호,제한없음,승강기보수,정기점검,2019-12-28,경기도 오산시청,2022-09-13,4000000,경기도 오산시
수청초등학교앞 보도육교,기타,,오산대역로,경기도 오산시 오산대역로 123,37.170033,127.056151,37,4,,4,4,1.2,,Y,승강기점자블럭,2,,,2010-01-01,N,양호,제한없음,승강기보수,정기점검,2019-12-28,경기도 오산시청,2022-09-13,4000000,경기도 오산시
16단지앞(국도1) 보도육교,일반국도,1호선,경기대로,경기도 오산시 내삼미로 109,37.172774,127.062813,39,4,,4,4,1.2,,Y,승강기점자블럭,2,,,2011-01-01,N,양호,제한없음,,정기점검,2019-12-28,경기도 오산시청,2022-09-13,4000000,경기도 오산시
오산대역(국도1) 보도육교,일반국도,1호선,경기대로,경기도 오산시 청학로 236,37.169115,127.064049,44.4,4,,4,4,1.2,,Y,승강기점자블럭,2,,,2011-01-01,N,양호,제한없음,,정기점검,2019-12-28,경기도 오산시청,2022-09-13,4000000,경기도 오산시
광성초교앞 보도육교,기타,,서부로,경기도 오산시 수목원로 577-18,37.183341,127.039203,46,4,,4,4,1.2,,Y,경사로,,,,2011-01-01,N,양호,제한없음,,정기점검,2019-12-28,경기도 오산시청,2022-09-13,4000000,경기도 오산시
세마보도,기타,,세마역로,경기도 오산시 세마역로 60,37.184697,127.045565,70,6.8,,6.8,6.8,1.2,,N,없음,,,,2011-01-01,N,양호,제한없음,,정기점검,2019-12-28,경기도 오산시청,2022-09-13,4000000,경기도 오산시
고인돌 공원 생태육교,기타,,수목원로,경기도 오산시 수목원로 430,37.173731,127.051093,39.9,30,,30,30,1.2,,N,없음,,,,2010-01-01,N,양호,제한없음,,정기점검,2019-12-28,경기도 오산시청,2022-09-13,4000000,경기도 오산시
6단지앞 생태육교,기타,,여계산로,경기도 오산시 여계산로 21,37.173266,127.045171,25,30,,30,30,1.2,,N,없음,,,,2010-01-01,N,양호,제한없음,,정기점검,2019-12-28,경기도 오산시청,2022-09-13,4000000,경기도 오산시
8단지앞 생태육교,기타,,수청로,경기도 오산시 수청로 166,37.178686,127.045504,32,50,,50,50,1.2,,N,없음,,,,2010-01-01,N,양호,제한없음,,정기점검,2019-12-28,경기도 오산시청,2022-09-13,4000000,경기도 오산시
가장산업서북로 생태육교,기타,,가장산업서북로,경기도 오산시 가장산업서북로 39-58,37.168276,127.032291,25.8,30,,30,30,1.2,,N,없음,,,,2014-01-01,N,양호,제한없음,,정기점검,2019-12-28,경기도 오산시청,2022-09-13,4000000,경기도 오산시
삼미육교,기타,,북삼미로,경기도 오산시 북삼미로 175,37.192029,127.061532,41,4.8,,4.5,3.5,1.5,,Y,승강기점자블럭,2,,,2019-10-18,Y,양호,제한없음,,정기점검,2019-10-18,경기도 오산시청,2022-09-13,4000000,경기도 오산시
금천 보도교,시도,,범안로,서울특별시 금천구 범안로 1126,37.466615,126.897695,120,,,4.2,2,,,Y,엘리베이터,,없음,,2000-09-04, ,보통,제한없음,,정기점검,2021-12-16,서울특별시 금천구청,2022-08-25,3170000,서울특별시 금천구
석수역 앞 보도육교,시도,,시흥대로,서울특별시 금천구 시흥대로 6,37.43430825,126.903577,59,,,5,3.7,,,Y,엘리베이터,,없음,,2009-06-30, ,보통,제한없음,,정기점검,2021-12-16,서울특별시 금천구청,2022-08-25,3170000,서울특별시 금천구
남서울한양(아)앞 보도육교,구도,,벚꽃로,서울특별시 금천구 시흥대로 165,37.447902,126.900726,49.6,,,0,4.5,,,Y,엘리베이터,,없음,,2011-07-31, ,보통,제한없음,,정기점검,2021-12-16,서울특별시 금천구청,2022-08-25,3170000,서울특별시 금천구
가산한내 보도육교,시도,,서부간선도로,서울특별시 금천구 가산디지털2로 127-143,37.478621,126.876975,39.5,,,4.5,4.7,,,Y,점자블럭,,없음,,2007-12-24, ,보통,제한없음,,정기점검,2021-12-16,서울특별시 금천구청,2022-08-25,3170000,서울특별시 금천구
독산한내 보도육교,구도,,서해안고속도로,서울특별시 금천구 벚꽃로 73,37.462907,126.890424,46,,,4.5,5.7,,,Y,경사로,,없음,,2008-01-11, ,보통,제한없음,목재데크설치(246㎡),정기점검,2021-12-16,서울특별시 금천구청,2022-08-25,3170000,서울특별시 금천구
두산초교앞 보도육교,시도,,범안로,서울특별시 금천구 범안로11길 3,37.467552,126.890943,26,,,4.3,4,,,Y,점자블럭,,없음,,1992-12-20, ,보통,제한없음,거더내부 및 계단 도장,정기점검,2021-12-16,서울특별시 금천구청,2022-08-25,3170000,서울특별시 금천구
한신(아)앞 보도육교,시도,,한내로,서울특별시 금천구 한내로 62,37.455396,126.888885,70,,,4.5,4,,,Y,엘리베이터,,없음,,1992-12-20, ,보통,제한없음,,정기점검,2021-12-16,서울특별시 금천구청,2022-08-25,3170000,서울특별시 금천구
경민아파트 앞 육교,지방도,1022번,황산로,경상남도 양산시 물금읍 황산로 707,35.3318253,129.0095561,,,,4.8,,,,N,없음,,,,2010-01-01,N,보통,제한없음,,정기점검,2022-05-03,경상남도 양산시청,2022-09-29,5380000,경상남도 양산시
대동 황토방 아파트 앞 육교,일반국도,35번,양산대로,경상남도 양산시 양주로 154,35.3363751,129.0361453,,,,5,,,,N,없음,,,,2010-01-01,N,보통,제한없음,,정기점검,2022-05-03,경상남도 양산시청,2022-09-29,5380000,경상남도 양산시
양곡육교3,지방도,356호선,양곡4로,경기도 김포시 양촌읍 양곡리 양곡4로,37.6625476,126.633914,33,,,5,4,1,,Y,경사로,2,없음,,2008-01-01,Y,보통,제한없음,,정기점검,2022-06-30,경기도 김포시청 도로관리과,2022-11-02,4090000,경기도 김포시
장기육교1,시도,,김포한강2로,경기도 김포시 장기동 김포한강2로,37.642871,126.664973,26,,,5,4.2,1,6,Y,승강기,2,없음,,2008-01-01,Y,보통,제한없음,바닥재 교체,정기점검,2022-06-30,경기도 김포시청 도로관리과,2022-11-02,4090000,경기도 김포시
장기육교2,시도,,김포한강1로,경기도 김포시 장기동 김포한강1로,37.641566,126.666898,30,,,5,5.1,1,6,Y,승강기,2,없음,,2008-01-01,Y,보통,제한없음,바닥재 교체,정기점검,2022-06-30,경기도 김포시청 도로관리과,2022-11-02,4090000,경기도 김포시
한가람육교,시도,,김포한강7로,경기도 김포시 구래동 김포한강7로,37.6372701,126.631322,37,,,4.5,5.5,1,44,N,없음,,없음,,2014-01-01,Y,보통,제한없음,바닥재 교체,정기점검,2022-06-30,경기도 김포시청 도로관리과,2022-11-02,4090000,경기도 김포시
나비육교,시도,,김포한강3로,경기도 김포시 구래동 김포한강3로,37.641416,126.6301633,72,,,4.5,16,1,398,N,없음,,없음,,2014-01-01,Y,보통,제한없음,,정기점검,2022-06-30,경기도 김포시청 도로관리과,2022-11-02,4090000,경기도 김포시
솔터육교,시도,,김포한강3로,경기도 김포시 마산동 김포한강3로,37.6389349,126.636186,44,,,4.5,7.5,1,52,N,없음,,없음,,2014-01-01,Y,보통,제한없음,바닥재 교체,정기점검,2022-06-30,경기도 김포시청 도로관리과,2022-11-02,4090000,경기도 김포시
은여울육교,시도,,김포한강3로,경기도 김포시 마산동 김포한강3로,37.6389349,126.636186,44,,,4.5,7.5,1,140,N,없음,,없음,,2014-01-01,Y,보통,제한없음,,정기점검,2022-06-30,경기도 김포시청 도로관리과,2022-11-02,4090000,경기도 김포시
고창육교,시도,,김포한강3로,경기도 김포시 장기동 김포한강3로,37.6421535,126.656937,40,,,4.5,5.5,1,194,Y,승강기,2,없음,,2014-01-01,Y,보통,제한없음,바닥재 교체,정기점검,2022-06-30,경기도 김포시청 도로관리과,2022-11-02,4090000,경기도 김포시
수정육교,시도,,김포대로,경기도 김포시 운양동 김포대로,37.6475225,126.6774076,52,,,4.5,5.5,1,107,Y,승강기,2,없음,,2014-01-01,Y,보통,제한없음,바닥재 교체,정기점검,2022-06-30,경기도 김포시청 도로관리과,2022-11-02,4090000,경기도 김포시
호수육교,시도,,김포한강5로,경기도 김포시 양촌읍 양곡리 김포한강5로,37.6514716,126.6285925,46,,,4.5,5.5,1,141,Y,승강기,2,없음,,2014-01-01,Y,보통,제한없음,바닥재 교체,정기점검,2022-06-30,경기도 김포시청 도로관리과,2022-11-02,4090000,경기도 김포시
은여울공원육교,시도,,김포한강8로,경기도 김포시 마산동 김포한강8로,37.6363621,126.6347321,24,,,4.5,7,1,,N,없음,,없음,,2016-03-31,Y,보통,제한없음,,정기점검,2022-06-30,경기도 김포시청 도로관리과,2022-11-02,4090000,경기도 김포시
터미널육교,기타,,금오대로,충청남도 예산군 예산읍 금오대로 35-14,36.6944597,126.8323637,37.9,0,13.5,4.8,0,0,0,Y,경사로,1,없음,0,1999-12-20,N,양호,제한없음,우레탄보도 정비 A=280㎡,정기점검,2022-06-30,충청남도 예산군청,2022-10-13,4610000,충청남도 예산군
은천초교 앞,시도,,은천로,서울특별시 관악구 은천로 66,37.48611421,126.942719,18,,,4.5,4,,,N,없음,,,,1997-07-24,N,보통,제한없음,배수구 교체+탄성포장,정기점검,2022-06-14,서울특별시 관악구청,2022-09-28,3200000,서울특별시 관악구
사당초교 앞,시도,,남부순환로,서울특별시 관악구 남부순환로 2030,37.4759153,126.9742651,33,,,4.5,4,,,N,없음,,,,1984-01-21,N,보통,제한없음,,정기점검,2022-06-14,서울특별시 관악구청,2022-09-28,3200000,서울특별시 관악구
신우초교 앞,시도,,호암로,서울특별시 관악구 호암로 498,37.46326397,126.9325353,24,,,4.5,4,,,N,없음,,,,1992-07-27,N,보통,제한없음,녹제거+내부 탈락손상부 복구 및 외부도장+배수구 청소,정기점검,2022-06-14,서울특별시 관악구청,2022-09-28,3200000,서울특별시 관악구
도림천보도육교,시도,,신사로,서울특별시 관악구 신사로 70,37.48552868,126.9106002,88,,,4.5,4,,,N,없음,,,,1994-07-20,N,보통,제한없음,배수구 청소+난간보수,정기점검,2022-06-14,서울특별시 관악구청,2022-09-28,3200000,서울특별시 관악구
신림동보라매공원,시도,,신사로,서울특별시 관악구 신사로 130,37.48867351,126.916324,72,,,4.5,4,,,Y,경사로,2,,,1998-02-28,N,보통,제한없음,배수구 청소,정기점검,2022-06-14,서울특별시 관악구청,2022-09-28,3200000,서울특별시 관악구
봉현초교앞,시도,,관악로,서울특별시 관악구 관악로 304,37.49205057,126.957711,43,,,4.5,6,,,Y,경사로,2,,,2003-01-28,N,양호,제한없음,,정기점검,2022-06-14,서울특별시 관악구청,2022-09-28,3200000,서울특별시 관악구
구암초교앞,시도,,은천로,서울특별시 관악구 은천로 93,37.48728083,126.9452473,28,,,4.5,4.5,,,Y,경사로,1,,,2005-06-30,N,양호,제한없음,난간 휨 보수+논슬립설치 및 계단정비,정기점검,2022-06-14,서울특별시 관악구청,2022-09-28,3200000,서울특별시 관악구
관악산~까치산생태통로,시도,,남부순환로,서울특별시 관악구 남부순환로 2004,37.475479,126.970916,80,,,4.5,15,,,N,없음,,,,2006-12-27,N,양호,제한없음,,정기점검,2022-06-14,서울특별시 관악구청,2022-09-28,3200000,서울특별시 관악구
수청동 육교,시도,,내삼미로,경기도 오산시 내삼미로 9,37.1634438,127.0683258,23,2.3,,2.3,2.3,1.2,,Y,경사로,,,,1999-01-01,N,양호,제한없음,,정기점검,2019-12-28,경기도 오산시청,2022-09-13,4000000,경기도 오산시
운암 육교,시도,,운천로,경기도 오산시 운천로 12,37.142879,127.074783,30,4,,4,4,1.2,,Y,경사로,,,,2001-01-01,N,양호,제한없음,,정기점검,2019-12-28,경기도 오산시청,2022-09-13,4000000,경기도 오산시
성호중고 육교,시도,,동부대로,경기도 오산시 동부대로 429-3,37.140295,127.078279,31.5,3,,3,3,1.2,,Y,경사로,,,,2005-01-01,N,양호,제한없음,,정기점검,2019-12-28,경기도 오산시청,2022-09-13,4000000,경기도 오산시
대곡육교,일반국도,5번,비슬로,대구광역시 달서구 비슬로 2698,35.80884637,128.5109235,32.6,5,,5,3,1.2,,Y,점자블록,1,,,1997-12-06,N,양호,제한없음,,정기점검,2022-05-30,대구광역시 달서구청,2022-10-11,3470000,대구광역시 달서구
용산육교,구도,1-23번,평리로,대구광역시 달서구 용산서로 22,35.8578223354,128.5276413085,30,4.8,,4.8,4,1.2,,N,없음,,,,1998-12-02,N,양호,제한없음,,정기점검,2022-05-30,대구광역시 달서구청,2022-10-11,3470000,대구광역시 달서구
새방육교,구도,2-38번,새방로,대구광역시 달서구 새방로 77,35.8654793232,128.5256790424,26.9,5,,5,3,1.2,,Y,점자블록,1,,,2001-12-31,N,양호,제한없음,,정기점검,2022-05-30,대구광역시 달서구청,2022-10-11,3470000,대구광역시 달서구
달비육교,구도,2-15번,앞산터널로,대구광역시 달서구 상화로 370,35.8077143368,128.5521228724,47.1,4.5,,4.5,3.5,1.2,,Y,점자블록,1,엘리베이터,1,2013-04-30,N,양호,제한없음,,정기점검,2022-05-30,대구광역시 달서구청,2022-10-11,3470000,대구광역시 달서구
상화육교,구도,2-15번,상화로,대구광역시 달서구 월곡로 112,35.8072449107,128.5498193144,42.8,4.5,,4.5,3.5,1.2,,Y,점자블록,1,엘리베이터,1,2013-04-30,N,양호,제한없음,,정기점검,2022-05-30,대구광역시 달서구청,2022-10-11,3470000,대구광역시 달서구
용산지하차도 간이육교,구도,1-23번,선원로,대구광역시 달서구 선원로 284,35.8585515357,128.5235553209,36,4.5,,4.5,1.5,1.2,,N,없음,,,,2007-12-03,N,양호,제한없음,,정기점검,2022-05-30,대구광역시 달서구청,2022-10-11,3470000,대구광역시 달서구
월성육교,구도,1-22번,월곡로,대구광역시 달서구 월성로 76,35.8311093577,128.5260827185,26.5,4.5,,4.5,5.8,1.2,,Y,점자블록,1,엘리베이터,1,2022-09-14,Y,양호,제한없음,,정기점검,2022-09-14,대구광역시 달서구청,2022-10-11,3470000,대구광역시 달서구
연희초교 앞 보도육교,시도,,연희로,서울특별시 서대문구 연희로 134,37.569298,126.933117,30,,,4.5,3.8,,,N,없음,,,,1995-03-24, ,양호,제한없음,,정기점검,2022-10-04,서대문구청,2022-10-31,3120000,서울특별시 서대문구
구서울여상 앞 보도육교,시도,,통일로,서울특별시 서대문구 통일로 325,37.579836,126.952224,30,,,4.2,4,,,N,없음,,,,1988-12-24, ,보통,제한없음,,정기점검,2022-10-05,서대문구청,2022-10-31,3120000,서울특별시 서대문구
아현고가 밑 보도육교,시도,,신촌로,서울특별시 서대문구 신촌로 319,37.558799,126.960901,39,,,4.3,4,,,N,없음,,,,2005-04-29, ,보통,제한없음,,정기점검,2022-10-05,서대문구청,2022-10-31,3120000,서울특별시 서대문구
연대병원 앞 보도육교,시도,,성산로,서울특별시 서대문구 성산로 494-6,37.560975,126.9418556,58,,,4.5,4,,,Y,엘리베이터,,,,2006-06-30, ,양호,제한없음,,정기점검,2022-10-04,서대문구청,2022-10-31,3120000,서울특별시 서대문구
홍제초교 앞 보도육교,시도,,세검정로,서울특별시 서대문구 세검정로 19,37.592299,126.9434788,25.5,,,4.3,3,,,N,없음,,,,1996-01-01, ,양호,제한없음,,정기점검,2022-10-04,서대문구청,2022-10-31,3120000,서울특별시 서대문구
금화초교 앞 보도육교,시도,,통일로,서울특별시 서대문구 통일로 165,37.568541,126.963454,29.8,,,4.5,3.5,,,N,없음,,,,1996-01-01, ,보통,제한없음,,정기점검,2022-10-05,서대문구청,2022-10-31,3120000,서울특별시 서대문구
미동초교 앞 보도육교,시도,,충정로,서을특별시 서대문구 충정로 53,37.5636687,126.964564,34.8,,,4.5,3.5,,,N,없음,,,,1996-01-01, ,보통,제한없음,,정기점검,2022-10-05,서대문구청,2022-10-31,3120000,서울특별시 서대문구
호암지육교,시도,,중원대로,충청북도 충주시 중원대로,36.964295,127.924624,,,,4.5,,,,Y,경사로,,없음,,, ,양호,제한없음,,정기점검,2020-06-23,충청북도 충주시청,2022-10-31,4390000,충청북도 충주시
목행육교,시도,,충원대로,충청북도 충주시 충원대로,37.003760,127.916597,,,,5,,,,N,없음,,없음,,, ,양호,제한없음,,정기점검,2020-06-23,충청북도 충주시청,2022-10-31,4390000,충청북도 충주시
달천초교앞육교,일반국도,3호선,중원대로,충청북도 충주시 중원대로,36.962288,127.879542,,,,5,,,,N,없음,,없음,,, ,양호,제한없음,,정기점검,2020-06-23,충청북도 충주시청,2022-10-31,4390000,충청북도 충주시
기업도시 육교 1호,시도,,기업도시로,충청북도 충주시 중앙탑면 기업도시로,37.014285,127.826974,,,,4.5,,,,Y,엘리베이터,,없음,,, ,양호,제한없음,,정기점검,2020-06-23,충청북도 충주시청,2022-10-31,4390000,충청북도 충주시
기업도시 육교 2호,시도,,기업도시3로,충청북도 충주시 주덕읍 기업도시3로,37.006544,127.815413,,,,4.5,,,,Y,엘리베이터,,없음,,, ,양호,제한없음,,정기점검,2020-06-23,충청북도 충주시청,2022-10-31,4390000,충청북도 충주시
사우육교1,시도,,김포대로,경기도 김포시 김포대로,37.621081,126.717038,50,,,4.8,3.8,1,,Y,경사로,2,없음,,2000-12-01,Y,보통,제한없음,,정기점검,2022-06-30,경기도 김포시청 도로관리과,2022-11-02,4090000,경기도 김포시
사우육교2,시도,,김포대로,경기도 김포시 사우동 김포대로,37.619587,126.719212,50,,,4.8,3.8,1,,Y,경사로,2,없음,,2000-12-01,Y,보통,제한없음,,정기점검,2022-06-30,경기도 김포시청 도로관리과,2022-11-02,4090000,경기도 김포시
마송육교1,일반국도,48번,김포대로,경기도 김포시 통진읍 마송리 김포대로,37.686773,126.590259,57,,,4.5,4,1,,Y,경사로,2,없음,,2008-01-01,Y,보통,제한없음,,정기점검,2022-06-30,경기도 김포시청 도로관리과,2022-11-02,4090000,경기도 김포시
마송육교2,일반국도,48번,김포대로,경기도 김포시 통진읍 마송리 김포대로,37.687265,126.590619,51,,,4.5,4,1,,Y,경사로,2,없음,,2008-01-01,Y,보통,제한없음,,정기점검,2022-06-30,경기도 김포시청 도로관리과,2022-11-02,4090000,경기도 김포시
양곡육교1,지방도,356호선,양곡4로,경기도 김포시 양촌읍 양곡리 양곡4로,37.6625476,126.633914,31,,,5.4,4,1,,Y,경사로,2,없음,,2008-01-01,Y,보통,제한없음,,정기점검,2022-06-30,경기도 김포시청 도로관리과,2022-11-02,4090000,경기도 김포시
양곡육교2,시도,,양곡4로,경기도 김포시 양촌읍 양곡리 양곡4로,37.6560249,126.6306603,32,,,5.4,4,1,,Y,경사로,2,없음,,2008-01-01,Y,보통,제한없음,,정기점검,2022-06-30,경기도 김포시청 도로관리과,2022-11-02,4090000,경기도 김포시
구평육교,지방도,514호선,인동가산로,경상북도 구미시 인동가산로,36.093818,128.435008,31.5,8.6,,4.5,4,1.5,8,N,없음,,없음,,1997-01-01,N,양호,제한없음,,정기점검,2022-06-14,경상북도 구미시,2022-10-21,5080000,경상북도 구미시
금오육교,시도,,백산로,경상북도 구미시 백산로,36.124452,128.336875,61.5,6,,4.3,4,1.5,20,Y,승강기,3,캐노피,1,2007-01-01,N,양호,제한없음,,정기점검,2022-06-14,경상북도 구미시,2022-10-21,5080000,경상북도 구미시
도량ECO다리,시도,,봉곡남로,경상북도 구미시 봉곡남로,36.152645,128.320291,33.8,11.4,,4.5,3,1.5,,N,없음,,없음,,2012-10-04,N,양호,제한없음,일부 바닥판 및 난간 보수,정기점검,2022-06-14,경상북도 구미시,2022-10-21,5080000,경상북도 구미시
도송육교,시도,,송동로,경상북도 구미시 송동로,36.14793071,128.3233597,24.3,5.25,,4.5,4,1.5,18,N,없음,,캐노피,1,1998-01-01,N,양호,제한없음,"재도장, 캐노피설치 등",정기점검,2022-06-14,경상북도 구미시,2022-10-21,5080000,경상북도 구미시
봉곡ECO다리,시도,,들성로,경상북도 구미시 도아읍 들성로,36.152278,128.324305,31,10.2,,4.5,3,1.5,,N,없음,,없음,,2012-10-04,N,양호,제한없음,일부 바닥판 및 난간 보수,정기점검,2022-06-14,경상북도 구미시,2022-10-21,5080000,경상북도 구미시
봉곡육교,시도,,봉곡남로,경상북도 구미시 봉곡남로,36.151061,128.316401,21,5,,4.3,4,1.5,2,N,없음,,캐노피,1,2001-01-01,N,양호,제한없음,바닥판 교체 및 캐노피설치 등,정기점검,2022-06-14,경상북도 구미시,2022-10-21,5080000,경상북도 구미시
비산육교,시도,,비산로,경상북도 구미시 수출대로3길,36.119547,128.373691,19.4,5.85,,4.5,3.6,1.5,,N,없음,,캐노피,1,1995-01-01,N,양호,제한없음,,정기점검,2022-06-14,경상북도 구미시,2022-10-21,5080000,경상북도 구미시
삼성육교,지방도,514호선,인동가산로,경상북도 구미시 인동가산로,36.107825,128.417745,64.4,18.73,,4.5,4.4,1.5,,Y,승강기,3,없음,,2009-02-09,N,양호,제한없음,,정기점검,2022-06-14,경상북도 구미시,2022-10-21,5080000,경상북도 구미시
신평육교,지방도,514호선,구미중앙로,경상북도 구미시 구미중앙로,36.11991104,128.3590587,52,6.9,,4.5,4,1.5,8,N,없음,,없음,,1992-01-01,N,양호,제한없음,,정기점검,2022-06-14,경상북도 구미시,2022-10-21,5080000,경상북도 구미시
원평철도 육교,시도,,원남로1길,경상북도 구미시 원남로3길,36.12996388,128.3278706,38,8.85,,4.7,4,1.5,,N,없음,,캐노피,1,1992-01-01,N,보통,제한없음,,정기점검,2022-06-14,경상북도 구미시,2022-10-21,5080000,경상북도 구미시
인동육교,지방도,514호선,인동가산로,경상북도 구미시 인동가산로,36.107931,128.417844,35,6.84,,4.8,4,1.5,8,N,없음,,없음,,1997-01-01,N,양호,제한없음,,정기점검,2022-06-14,경상북도 구미시,2022-10-21,5080000,경상북도 구미시
제물포보도육교,구도,,경인로,인천광역시 미추홀구 숙골로 35번길 74,37.466908,126.662483,30,7,,7,3,,,N,없음,,없음,,2006-08-01, ,보통,제한없음,강재도장,정기점검,2021-12-17,인천광역시 미추홀구청,2022-10-20,3510500,인천광역시 미추홀구
고속종점보도육교,시도,65호,인천대로,인천광역시 미추홀구 아암대로 53,37.45661955,126.6358522,41.5,5,,5,3.7,,,N,없음,,없음,,1999-12-08, ,보통,제한없음,핸드레일+바닥+계단+거더 보수,정기점검,2021-12-17,인천광역시 미추홀구청,2022-10-20,3510500,인천광역시 미추홀구
낙섬사거리보도육교,구도,,"매소홀로, 아암대로",인천광역시 미추홀구 매소홀로 45,37.45127311,126.631758,88,4.5,,4.5,3,,,Y,경사로,3,없음,,2002-11-19, ,보통,제한없음,기둥+거더+계단 보수,정기점검,2021-12-17,인천광역시 미추홀구청,2022-10-20,3510500,인천광역시 미추홀구
관교보도육교,구도,,경원대로,인천광역시 미추홀구 주승로 180,37.445337,126.690402,126,5.5,,5.5,3.8,,,Y,경사로,2,없음,,1999-12-19, ,보통,제한없음,기둥+거더+계단 보수,정기점검,2021-12-17,인천광역시 미추홀구청,2022-10-20,3510500,인천광역시 미추홀구
주안동 보도육교,구도,,경인로,인천광역시 미추홀구 염창로 114-42,37.46469947,126.686009,30,7,,7,2,,,Y,없음,,엘리베이터,2,2000-12-26, ,보통,제한없음,강재도장+바닥포장+트렌치설치,정기점검,2021-12-17,인천광역시 미추홀구청,2022-10-20,3510500,인천광역시 미추홀구
용현동보도육교,시도,65호,인천대로,인천광역시 미추홀구 경인북길 245,37.45485315,126.661491,56,5,,5,3.65,,,N,없음,,없음,,2001-07-13, ,보통,제한없음,기둥+거더+계단 보수,정기점검,2021-12-17,인천광역시 미추홀구청,2022-10-20,3510500,인천광역시 미추홀구
숭의보도육교,구도,,경인로,인천광역시 미추홀구 참외전로 317,37.466539,126.649479,32,7,,7,4,,,N,없음,,없음,,1992-12-20, ,양호,제한없음,계단 도색,정기점검,2021-12-17,인천광역시 미추홀구청,2022-10-20,3510500,인천광역시 미추홀구
도화동보도육교,구도,,경인로,인천광역시 미추홀구 숙골로 24번길 62,37.46559497,126.671107,40,7,,7,4,,,N,없음,,없음,,1992-11-19, ,양호,제한없음,,정기점검,2021-12-17,인천광역시 미추홀구청,2022-10-20,3510500,인천광역시 미추홀구
인천터미널경관육교,구도,,인하로,인천광역시 미추홀구 연남로 35,37.44250623,126.7015187,36.7,5,,5,4.5,,,Y,없음,,엘리베이터,2,2011-02-01, ,양호,제한없음,계단 보수,정기점검,2021-12-17,인천광역시 미추홀구청,2022-10-20,3510500,인천광역시 미추홀구
성서육교,일반국도,30번,달구벌대로,대구광역시 달서구 달구벌대로 1334,35.8505700040,128.5133674496,41.7,4.5,,4.5,4,1.2,,Y,점자블록,1,,,1993-05-26,N,양호,제한없음,,정기점검,2022-05-30,대구광역시 달서구청,2022-10-11,3470000,대구광역시 달서구
감삼육교,구도,1-3번,당산로,대구광역시 달서구 당산로 123,35.8491799778,128.5451459147,17,4.5,,4.5,3,1.2,,Y,점자블록,1,,,1993-08-05,N,양호,제한없음,,정기점검,2022-05-30,대구광역시 달서구청,2022-10-11,3470000,대구광역시 달서구
두류육교,일반국도,5번,두류공원로,대구광역시 달서구 두류공원로 255-1,35.85754917,128.5566095,33.5,5,,5,4,1.2,,Y,점자블록,1,,,1996-05-14,N,양호,제한없음,,정기점검,2022-05-30,대구광역시 달서구청,2022-10-11,3470000,대구광역시 달서구
송현육교,구도,1-24번,앞산순환로,대구광역시 달서구 앞산순환로 301,35.8281700335,128.5601882593,38,4.8,,4.8,4.5,1.2,,Y,점자블록,1,,,1997-07-10,N,양호,제한없음,,정기점검,2022-05-30,대구광역시 달서구청,2022-10-11,3470000,대구광역시 달서구
오천보도육교,일반국도,42번,중부대로,경기도 이천시 마장면 중부대로 133,37.25601404,127.3511666,25.6,5,,5,2.5,,0,Y,엘리베이터+점자블록,3,캐노피+엘리베이터,3,,N,보통,제한없음,,정기점검,2021-06-30,경기도 이천시청,2022-09-16,4070000,경기도 이천시
수광보도육교,시도,,경충대로,경기도 이천시 신둔면 경충대로 3122-20,37.30503377,127.4049025,29,5,,4.8,5,,10,Y,엘리베이터+점자블럭,3,엘리베이터,2,,N,보통,제한없음,,정기점검,2021-06-30,경기도 이천시청,2022-09-16,4070000,경기도 이천시
사음보도육교,시도,,경충대로,경기도 이천시 경충대로 2855,37.29118664,127.4250777,26,5.2,,5.2,4,,4,N,없음,0,없음,0,,N,보통,제한없음,,정기점검,2021-06-30,경기도 이천시청,2022-09-16,4070000,경기도 이천시
관고보도육교,시도,,경충대로,경기도 이천시 경충대로 2675번길 6,37.27713448,127.4348064,28.9,5,,4.8,4,,4,N,없음,0,없음,0,,N,보통,제한없음,,정기점검,2021-06-30,경기도 이천시청,2022-09-16,4070000,경기도 이천시
중리보도육교,시도,,경충대로,경기도 이천시 경충대로 2626,37.27576654,127.4412271,28.9,5,,4.8,4,,4,N,없음,0,캐노피,0,,N,보통,제한없음,,정기점검,2021-06-30,경기도 이천시청,2022-09-16,4070000,경기도 이천시
진리보도육교,시도,,경충대로,경기도 이천시 경충대로 2483,37.27092798,127.4548778,31,5,,4.8,4,,12,N,없음,0,캐노피,0,,N,보통,제한없음,,정기점검,2021-06-30,경기도 이천시청,2022-09-16,4070000,경기도 이천시
신하보도육교,시도,,경충대로,경기도 이천시 부발읍 경충대로 2243,37.25970848,127.4770612,26.4,5.2,,5,3.9,,21,Y,엘리베이터+점자블럭,3,캐노피+엘리베이터,3,,N,보통,제한없음,,정기점검,2021-06-30,경기도 이천시청,2022-09-16,4070000,경기도 이천시
사동보도육교,시도,,경충대로,경기도 이천시 대월면 사동로 176,37.24461709,127.4948977,30,5,,5,2,,12,Y,경사로,1,없음,0,,N,보통,제한없음,,정기점검,2021-06-30,경기도 이천시청,2022-09-16,4070000,경기도 이천시
합천육교,기타,,대야로,경상남도 합천군 대야로,35.565305,128.162806,21.2,5.5,,5,3,1.2,0,N,없음,0,없음,0,1998-08-01,N,양호,제한없음,,정기점검,2020-10-01,경상남도 합천군청,2022-09-16,5480000,경상남도 합천군
중앙육교,지방도,11번,인북로,전라북도 익산시 인북로 86,35.9366218744,126.9524482413,20,4.5,,4.3,3,1.5,0,N,없음,0,없음,0,1997-05-15,N,양호,제한없음,계단 및 도색 보수,정기점검,2017-10-17,전라북도 익산시청,2022-09-17,4680000,전라북도 익산시
북중육교,지방도,23번,익산대로,전라북도 익산시 익산대로 411,35.9625978239,126.9531689860,21,4.8,,4.5,4,1.5,0,N,없음,0,없음,0,1999-09-04,N,양호,제한없음,계단 및 도색 보수,정기점검,2017-10-17,전라북도 익산시청,2022-09-17,4680000,전라북도 익산시
신동육교,지방도,23번,무왕로,전라북도 익산시 무왕로12길 9-23,35.9601983219,126.9661883972,30,4.8,,4.5,4,1.5,0,N,없음,0,없음,0,2000-04-21,N,양호,제한없음,계단 및 도색 보수,정기점검,2017-10-17,전라북도 익산시청,2022-09-17,4680000,전라북도 익산시
영등육교,지방도,23번,무왕로,전라북도 익산시 무왕로 1100,35.9583147723,126.9790008138,30,4.8,,4.5,3,1.5,0,N,없음,0,없음,0,2001-10-13,N,양호,제한없음,계단 및 도색 보수,정기점검,2017-10-17,전라북도 익산시청,2022-09-17,4680000,전라북도 익산시
어양육교,지방도,23번,무왕로,전라북도 익산시 무왕로 1152,35.9587532690,126.9846426057,30,4.8,,4.5,3,1.5,0,N,없음,0,없음,0,2001-10-13,N,양호,제한없음,계단 및 도색 보수,정기점검,2017-10-17,전라북도 익산시청,2022-09-17,4680000,전라북도 익산시
팔봉육교,지방도,720번,무왕로,전라북도 익산시 무왕로 1432,35.9663785894,127.0136694393,31,4.7,,4.5,3,1.5,0,Y,엘리베이터,2,엘리베이터+캐노피,2,2010-11-15,Y,양호,제한없음,캐노피 설치,정기점검,2017-10-17,전라북도 익산시청,2022-09-17,4680000,전라북도 익산시
남양파크 육교,시도,,중마로,전라남도 광양시 중마로 210,34.94334001,127.6899422,23.5,,,4.3,3,,,N,없음,,,,1995-01-01, ,보통,제한없음,,정기점검,2018-12-31,전라남도 광양시청,2022-09-15,4840000,전라남도 광양시
성호육교,시도,,광장로,전라남도 광양시 광장로 70,34.93340735,127.6904363,26,,,4.8,3,,,Y,경사로,,,,2015-01-01, ,보통,제한없음,,정기점검,2018-12-31,전라남도 광양시청,2022-09-15,4840000,전라남도 광양시
가야초등학교 육교,시도,,가야로,전라남도 광양시 가야로 369,34.96704652,127.7127294,25,,,5,2,,,N,없음,,,,1997-01-01, ,보통,제한없음,,정기점검,2018-12-31,전라남도 광양시청,2022-09-15,4840000,전라남도 광양시
백운육교,일반국도,2,금호로,전라남도 광양시 금호로 215,34.94245668,127.7265646,35,,,5.4,3,,,Y,경사로,,,,1996-01-01, ,보통,제한없음,,정기점검,2018-12-31,전라남도 광양시청,2022-09-15,4840000,전라남도 광양시
금당육교,일반국도,2,금호로,전라남도 광양시 희망길 8,34.936176,127.7253574,35,,,4.7,3,,,Y,경사로,,,,1989-01-01, ,보통,제한없음,,정기점검,2018-12-31,전라남도 광양시청,2022-09-15,4840000,전라남도 광양시
석남육교,일반국도,29호,서해로,충청남도 서산시 서해로 3415(석남동),36.7700528,126.4580608,24,62,225,45,26,12,,Y,휠체어 리프트,1,비가림시설,1,1996-05-27,N,양호,제한없음,,정기점검,2020-12-01,충청남도 서산시청,2022-08-30,4530000,충청남도 서산시
동명초교앞보도육교,시도,,내곡~월곡선-30(고산자로),서울특별시 성동구 고산자로 323,37.568532,127.037199,20.4,,,4.4,3,,,N,없음,,,,,N,보통,제한없음,,정기점검,2020-04-17,서울특별시 성동구청,2022-08-25,3030000,서울특별시 성동구
공원앞 육교,시도,52번,능곡중앙로,경기도 시흥시 능골길 1,37.36789973,126.814585,94.2,5.5,,4.5,3.5,1.5,,Y,경사로,2,없음,,2006-12-31,Y,양호,제한없음,,정기점검,2022-11-03,경기도 시흥시청,2022-11-24,4010000,경기도 시흥시
옥구공원앞 삼거리 육교,시도,39번,옥구공원로,경기도 시흥시 정왕대로 28번길 28,37.3546971,126.715703,39.2,5.5,,4.5,4,1.5,,Y,경사로,2,엘리베이터,2,2011-12-31,Y,양호,제한없음,,정기점검,2022-11-03,경기도 시흥시청,2022-11-24,4010000,경기도 시흥시
숙위교,시도,,청중로,인천광역시 서구 청라루미로42번길 5-23,37.529925,126.642682,42,5.5,,4.5,6.5,1.5,188,Y,경사로 및 엘리베이터,3,N,0,2012-06-30,Y,보통,제한없음,,정밀점검,2019-06-18,인천광역시 서구,2022-07-20,3560000,인천광역시 서구
문숙교,시도,,청중로,인천광역시 서구 청라사파이로 158,37.529564,126.626104,55.5,5.5,,4.5,6.5,1.5,291,Y,경사로 및 엘리베이터,3,N,0,2012-06-30,Y,양호,제한없음,,정밀점검,2019-06-18,인천광역시 서구,2022-07-20,3560000,인천광역시 서구
허암교,시도,,경제로,인천광역시 서구 청라동 84-11,37.536383,126.626065,55.5,5.5,,4.5,6.5,1.5,,Y,경사로 및 엘리베이터,3,N,0,2012-06-30,Y,양호,제한없음,,정밀점검,2019-06-18,인천광역시 서구,2022-07-20,3560000,인천광역시 서구
가정보도육교,시도,,봉오대로,인천광역시 서구 가정동 632,37.525089,126.667247,158,7.5,,4.5,11.5,,,Y,경사로,,N,,2015-12-02,Y,양호,제한없음,,정밀점검,2018-12-21,인천광역시 서구,2022-07-20,3560000,인천광역시 서구
계수육교,구도,,무진대로,광주광역시 서구 쌍촌동 1336,35.16218058,126.8600393,72.2,,,5,5,,,N,없음,,,,1999-01-01, ,양호,제한없음,,정기점검,2022-06-30,광주광역시 서구청,2022-11-29,3600000,광주광역시 서구
짚봉육교,구도,,금화로,광주광역시 서구 화정동 406-7,35.13740548,126.8776517,87.3,,,5,3.9,,,N,없음,,,,2002-01-01, ,양호,제한없음,,정기점검,2022-06-30,광주광역시 서구청,2022-11-29,3600000,광주광역시 서구
내방육교,구도,,화정로,광주광역시 서구 화정동 71-6,35.15542105,126.8768607,21.4,,,5,3,,,N,없음,,,,2004-01-01, ,양호,제한없음,,정기점검,2022-06-30,광주광역시 서구청,2022-11-29,3600000,광주광역시 서구
탄벌보도육교,일반국도,43번,회안대로,경기도 광주시 탄벌동 21-2,37.41789329,127.249877,45.1,5.5,,4.5,3,,,Y,경사로,,캐노피,0,2003-12-31,N,양호,제한없음,전체 도장보수+ 비가림시설설치,정기점검,2018-11-02,경기도 광주시청,2022-11-01,5540000,경기도 광주시
태전동보도육교,일반국도,43번,회안대로,경기도 광주시 태전동 609-2,37.38637107,127.2354198,20,5.5,,4.5,3.6,,,Y,경사로,,엘리베이터+캐노피,2,2000-12-31,N,양호,제한없음,전체 도장보수+ 비가림시설설치,정기점검,2018-11-02,경기도 광주시청,2022-11-01,5540000,경기도 광주시
삼동육교,시도,23번,경충대로,경기도 광주시 삼동 산53-1,37.41240004,127.2007917,33,5.3,,4.3,4,,,N,없음,,캐노피,0,2000-12-31,N,양호,제한없음,전체 도장보수+ 비가림시설설치,정기점검,2018-11-02,경기도 광주시청,2022-11-01,5540000,경기도 광주시
장지동육교,시도,23번,경충대로,경기도 광주시 장지동 산46-13,37.40396622,127.2363483,70.6,5.5,,4.5,1.5,,,Y,경사로,,캐노피,0,2013-11-25,Y,양호,제한없음,전체 도장보수+ 비가림시설설치,정기점검,2018-11-02,경기도 광주시청,2022-11-01,5540000,경기도 광주시
쌍령동육교,시도,23번,경충대로,경기도 광주시 쌍령동 101-2,37.40485038,127.2679214,32,6,,4.8,4,,,N,없음,,엘리베이터+캐노피,2,2012-12-31,Y,양호,제한없음,전체 도장보수+ 비가림시설설치,정기점검,2018-11-02,경기도 광주시청,2022-11-01,5540000,경기도 광주시
역동육교,시도,23번,경충대로,경기도 광주시 역동 90-3,37.40119001,127.2446442,28,6,,4.6,2.8,,,N,없음,,엘리베이터+캐노피,2,2007-12-31,Y,양호,제한없음,전체 도장보수+ 비가림시설설치,정기점검,2018-11-02,경기도 광주시청,2022-11-01,5540000,경기도 광주시
오포육교,지방도,57번,태재로,경기도 광주시 오포읍 신현리 709-15,37.360013,127.151009,38.5,6,,5,3.5,,,Y,경사로,,없음,0,2009-12-17,Y,양호,제한없음,도장보수,정기점검,2018-11-02,경기도 광주시청,2022-11-01,5540000,경기도 광주시
대쌍령보도육교,시도,23번,경충대로,경기도 광주시 초월읍 대쌍령리 211-5,37.385554,127.289077,38,6,,5,3.5,,,N,없음,,엘리베이터+캐노피,2,2016-09-01,Y,양호,제한없음,도장보수,정기점검,2018-11-02,경기도 광주시청,2022-11-01,5540000,경기도 광주시
무명육교,시도,23번,경충대로,경기도 광주시 곤지암읍 곤지암리 543,37.350646,127.340463,29.7,6,,5,4,,,N,없음,,없음,0,1997-09-01,N,양호,제한없음,없음,정기점검,2018-11-02,경기도 광주시청,2022-11-01,5540000,경기도 광주시
삼례육교,기타,25호선,삼례역로,전라북도 완주군 삼례읍 후정리 279-3,35.9070824,127.062021,,,,4.8,,,,Y,승강기,,,,, ,양호,제한없음,,정기점검,2022-11-07,전라북도 완주군 도로교통과,2022-11-24,4720000,전라북도 완주군
삼향동사무소육교,시도,1번,호남선,전라남도 목포시 영산로 743,34.830438,126.417928,38,4.9,,4.8,3,,,N,없음,,,,1998-01-01, ,양호,제한없음,,정기점검,2022-11-01,전라남도 목포시청,2022-11-17,4800000,전라남도 목포시
대박산육교,시도,1번,호남선,전라남도 목포시 영산로 762,34.831972,126.418279,38,5.1,,4.8,3,,,N,없음,,,,1998-01-01, ,양호,제한없음,,정기점검,2022-11-01,전라남도 목포시청,2022-11-17,4800000,전라남도 목포시
용해여상고육교,시도,1번,호남선,전라남도 목포시 영산로 417,34.806641,126.411395,29,4.7,,4.5,2.5,,,N,없음,,,,1995-01-01, ,양호,제한없음,논슬립 설치(2021년),정기점검,2022-11-01,전라남도 목포시청,2022-11-17,4800000,전라남도 목포시
목포역철도육교,시도,1번,호남선,전라남도 목포시 영산로 154-1,34.796162,126.388415,181,,,9,2.5,,,N,없음,,,,1990-01-01, ,양호,제한없음,"도장(2020년), 배수로 정비(2022년)",정기점검,2022-11-01,전라남도 목포시청,2022-11-17,4800000,전라남도 목포시
석현구검문소육교,시도,2번,호남선,전라남도 목포시 녹색로 1,34.8249725,126.4232524,83,5.2,,4.8,3,,,N,없음,,,,1998-01-01, ,양호,제한없음,도장공사+미끄럼 방지(2018년),정기점검,2022-11-01,전라남도 목포시청,2022-11-17,4800000,전라남도 목포시
광산가든육교,시도,1번,호남선,전라남도 목포시 영산로 820,34.8365331,126.4210149,40.7,5.1,,4.8,3,,,N,없음,,,,1998-01-01, ,양호,제한없음,철거 예정(2023년도),정기점검,2022-11-01,전라남도 목포시청,2022-11-17,4800000,전라남도 목포시
하당우미아파트 육교,시도,1번,호남선,전라남도 목포시 백년대로 10,34.798522,126.390636,42.1,5.2,,5,4,,,N,없음,,,,1999-12-06, ,양호,제한없음,논슬립 설치(2021년),정기점검,2022-11-01,전라남도 목포시청,2022-11-17,4800000,전라남도 목포시
하당롯데마트육교,시도,1번,호남선,전라남도 목포시 통일대로 60,34.799436,126.431265,43,5.1,,4.5,3.5,,,N,없음,,,,2002-06-30, ,양호,제한없음,난간 정비(2021년),정기점검,2022-11-01,전라남도 목포시청,2022-11-17,4800000,전라남도 목포시
산정동동초등교육교,시도,1번,호남선,전라남도 목포시 산정로 242,34.809346,126.388639,15.6,5.9,,4.2,3,,,N,없음,,,,2004-01-01, ,양호,제한없음,,정기점검,2022-11-01,전라남도 목포시청,2022-11-17,4800000,전라남도 목포시
문화예술회관육교,시도,1번,호남선,전라남도 목포시 남농로 95,34.7926162,126.4178012,70,4.5,,4.5,4.6,,,Y,경사로,,,,2008-01-01, ,양호,제한없음,"계단 및 논슬립 설치(2021년), 난간 정비(2021년)",정기점검,2022-11-01,전라남도 목포시청,2022-11-17,4800000,전라남도 목포시
옥암자전거육교,시도,2번,호남선,전라남도 목포시 남악로 22-14,34.8022406,126.4398618,257,6.2,,5,4,,,Y,경사로,,,,, ,양호,제한없음,난간 및 육교 상판 정비(2019년),정기점검,2022-11-01,전라남도 목포시청,2022-11-17,4800000,전라남도 목포시
규암농협 앞,기타,1-1호선,계백로,충청남도 부여군 규암면 계백로,36.275918,126.887753,33.9,5.2,,5,3.3,1.3,12,N,없음,,,,1994-11-29,N,보통,제한없음,,정기점검,2020-05-17,충청남도 부여군청,2022-11-16,4570000,충청남도 부여군
규암초등학교 앞,기타,1-1호선,계백로,충청남도 부여군 규암면 계백로,36.271967,126.865602,21,5,,5,4,1.1,19,N,없음,,비가림시설,1,1997-12-01,N,보통,제한없음,,정기점검,2020-05-17,충청남도 부여군청,2022-11-16,4570000,충청남도 부여군
부여초등학교 앞,기타,3-4호선,성왕로,충청남도 부여군 규암면 성왕로,36.283668,126.923441,21.5,5,,5,3,1.2,19,N,없음,,비가림시설,1,1999-12-30,N,보통,제한없음,,정기점검,2020-05-17,충청남도 부여군청,2022-11-16,4570000,충청남도 부여군
보도육교,일반국도,20호선,의령대로,경상남도 의령군 의령읍 벽화로 644-16,35.31400209,128.2565761,33,5,,4.5,7,,79,Y,경사로,1,,,,Y,양호,제한없음,,정밀안전진단,2022-11-14,경상남도 의령군청,2022-11-15,5390000,경상남도 의령군
단계육교,시도,3219073번,북원로,강원도 원주시 북원로 2384,37.35769372,127.9375741,25.1,4.7,,4.5,4,1,,N,없음,0,없음,0,,N,보통,제한없음,19.12 강재도장보수 43㎡,정기점검,2022-10-24,강원도 원주시청,2022-11-24,4190000,강원도 원주시
kT&G앞 육교,시도,3219073번,북원로,강원도 원주시 소초면 장양리 722-3,37.40700167,127.9568051,30.7,4.8,,4.6,4,1,,Y,경사로,2,없음,0,,N,보통,제한없음,,정기점검,2022-10-24,강원도 원주시청,2022-11-24,4190000,강원도 원주시
장양육교,시도,3219073번,북원로,강원도 원주시 소초면 장양리 806,37.41079621,127.9594464,24.7,5.1,,4.9,3,1,,Y,경사로,2,없음,0,,N,보통,제한없음,19.12 강재도장보수 20㎡,정기점검,2022-10-24,강원도 원주시청,2022-11-24,4190000,강원도 원주시
혁신도시 육교,시도,3219073번,혁신로,강원도 원주시 반곡동 1914-7,37.32482759,127.9910403,88,5.7,,5.5,5,1,,Y,엘리베이터,1,없음,0,,N,양호,제한없음,,정기점검,2022-10-24,강원도 원주시청,2022-11-24,4190000,강원도 원주시
안인일출교,기타,,안인일출길+안인진길,강원도 강릉시 강동면 안인진리 13-1,37.73415994,128.9894969,60.8,,,0,3.7,1,,N,없음,,,,,N,양호,제한없음,,정기점검,2022-05-12,강원도 강릉시청,2022-12-05,4200000,강원도 강릉시
강문솟대다리,기타,,창해로,강원도 강릉시 강문동 248-4,37.797323,128.916759,89.15,,,0,4,1.2,,Y,경사로,,,,,N,양호,제한없음,,정기점검,2022-05-12,강원도 강릉시청,2022-12-05,4200000,강원도 강릉시
솔바람다리,기타,,공항길,강원도 강릉시 공항길127번길,37.767951,128.951321,199.0,,,0,4,1.2,,Y,경사로,,,,,N,양호,제한없음,,정기점검,2022-05-12,강원도 강릉시청,2022-12-05,4200000,강원도 강릉시
율곡초앞육교,시도,,원대로,강원도 강릉시 교동 1918,37.76635177,128.8827116,28.2,5.1,,4.3,4,1.2,,N,없음,,,,,N,양호,제한없음,,정기점검,2022-05-12,강원도 강릉시청,2022-12-05,4200000,강원도 강릉시
경포초육교,시도,,원대로,강원도 강릉시 교동 1933,37.76903806,128.8828818,28,5.1,,4.3,4,1.2,,N,없음,,,,,N,양호,제한없음,,정기점검,2022-05-12,강원도 강릉시청,2022-12-05,4200000,강원도 강릉시
호계3동행정복지센터 앞 육교,일반국도,국도1호선,경수대로,경기도 안양시 동안구 경수대로 504,37.3676845,126.9587908,45.6,5,,4.3,4,1.1,,Y,승강기,1,,,2004-02-08,N,양호,제한없음,,정기점검,2019-04-12,경기도 안양시청,2022-11-15,3830000,경기도 안양시
범계동 신동아(아) 앞 육교,시도,,경수대로,경기도 안양시 동안구 경수대로 721,37.3858624,126.9504651,45,5,,4.5,4,1.1,,Y,승강기,1,,,1993-06-19,N,양호,제한없음,,정기점검,2019-04-12,경기도 안양시청,2022-11-15,3830000,경기도 안양시
향림 육교,일반국도,국도1호선,경수대로,경기도 안양시 만안구 예술공원로70번길 57-3,37.41290798,126.9196567,47,5,,4.5,3,1.1,,N,없음,0,,,1995-05-16,N,양호,제한없음,,정기점검,2021-11-25,경기도 안양시청,2022-11-15,3830000,경기도 안양시
석수역 앞 육교,일반국도,국도1호선,경수대로,경기도 안양시 만안구 경수대로 1430,37.4339014,126.903779,59,5.5,,5,3.7,1.1,,Y,승강기,1,,,2009-06-03,N,양호,제한없음,,정기점검,2019-06-30,경기도 안양시청,2022-11-15,3830000,경기도 안양시
호계3동 삼신아파트 앞 육교,일반국도,국도47호선,흥안대로,경기도 안양시 동안구 흥안대로 46,37.3674678,126.9509763,29,5,,4.8,4,1.1,,N,없음,0,,,1993-03-18,N,양호,제한없음,,정기점검,2019-04-12,경기도 안양시청,2022-11-15,3830000,경기도 안양시
안양남초교 앞 육교,일반국도,국도47호선,흥안대로,경기도 안양시 동안구 흥안대로249번길 18,37.37812652,126.967912,45.3,5.5,,5,4,1.1,,Y,승강기,1,,,1993-09-16,N,양호,제한없음,,정기점검,2019-04-12,경기도 안양시청,2022-11-15,3830000,경기도 안양시
평촌지하차도 위 육교,일반국도,국도47호선,흥안대로,경기도 안양시 동안구 흥안대로 372,37.3876567,126.9731514,44.6,5.5,,5,4,1.1,,N,없음,0,,,1994-10-28,N,양호,제한없음,,정기점검,2019-04-12,경기도 안양시청,2022-11-15,3830000,경기도 안양시
서안양우체국사거리 육교,지방도,국지도57호선,관악대로,경기도 안양시 만안구 안양로 238,37.3945594,126.925384,30,4.3,,4.3,5,1.1,,Y,승강기,1,,,1994-04-10,N,양호,제한없음,,정기점검,2021-11-25,경기도 안양시청,2022-11-15,3830000,경기도 안양시
샘모루초교 앞 육교,지방도,국지도57호선,관악대로,경기도 안양시 동안구 관악대로 133,37.3994214,126.9386655,40.4,5,,4.7,4,1.1,,Y,승강기,1,,,2003-12-05,N,양호,제한없음,,정기점검,2019-04-12,경기도 안양시청,2022-11-15,3830000,경기도 안양시
중앙공원 앞 육교,시도,,평촌대로,경기도 안양시 동안구 평촌대로 164,37.3867809,126.9587683,118.6,5,,5,4,1.1,,Y,경사로,1,,,1992-10-19,N,양호,제한없음,,정기점검,2019-04-12,경기도 안양시청,2022-11-15,3830000,경기도 안양시
롯데 향촌(아) 앞 육교,시도,,평촌대로,경기도 안양시 동안구 귀인로 193,37.38668847,126.9603797,107,5.5,,5.5,4,1.1,,Y,경사로,1,,,1997-05-07,N,양호,제한없음,,정기점검,2019-04-12,경기도 안양시청,2022-11-15,3830000,경기도 안양시
신촌동행정복지센터 앞 육교,시도,,동안로,경기도 안양시 동안구 동안로 28,37.3818035,126.9563052,84,5.5,,5.5,4,1.1,,Y,경사로,1,,,1997-05-16,N,양호,제한없음,,정기점검,2019-04-12,경기도 안양시청,2022-11-15,3830000,경기도 안양시
농수산물도매시장 앞 육교,시도,,관평로,경기도 안양시 동안구 흥안대로 313,37.38310598,126.9704796,67,5,,4.5,3.5,1.1,,Y,경사로,1,,,1999-03-22,N,양호,제한없음,,정기점검,2019-04-12,경기도 안양시청,2022-11-15,3830000,경기도 안양시
중앙공원관리사무소 앞 육교,시도,,관평로,경기도 안양시 동안구 관평로138번길 13,37.39052262,126.962384,89.8,5.5,,5,4,1.1,,Y,경사로,1,,,1992-10-10,N,양호,제한없음,,정기점검,2019-04-12,경기도 안양시청,2022-11-15,3830000,경기도 안양시
희성초교 앞 육교,시도,,학의로,경기도 안양시 동안구 학의로 90,37.3987117,126.9495243,91,5,,4.5,4,1.1,,Y,경사로,1,,,1998-03-16,N,양호,제한없음,,정기점검,2019-04-12,경기도 안양시청,2022-11-15,3830000,경기도 안양시
부안초교 앞 육교,시도,,달안로,경기도 안양시 동안구 달안로 117,37.3978633,126.9554415,94,5,,4.5,4,1.1,,Y,경사로,1,,,1998-03-22,N,양호,제한없음,,정기점검,2019-04-12,경기도 안양시청,2022-11-15,3830000,경기도 안양시
달안동행정복지센터 앞 육교,시도,,달안로,경기도 안양시 동안구 달안로 71,37.396314,126.9508033,84.6,5.5,,5,4,1.1,,Y,경사로,1,,,1993-10-14,N,양호,제한없음,,정기점검,2019-04-12,경기도 안양시청,2022-11-15,3830000,경기도 안양시
부흥초교 앞 육교,시도,,달안로,경기도 안양시 동안구 달안로 28,37.3936897,126.947137,94,5.5,,5.5,4,1.1,,Y,경사로,1,,,1997-05-09,N,양호,제한없음,,정기점검,2019-04-12,경기도 안양시청,2022-11-15,3830000,경기도 안양시
부림동행정복지센터 앞 육교,시도,,달안로,경기도 안양시 동안구 달안로 158,37.3989065,126.959855,85.2,5.5,,5,4,1.1,,Y,경사로,1,,,1993-10-16,N,양호,제한없음,,정기점검,2019-04-12,경기도 안양시청,2022-11-15,3830000,경기도 안양시
평안동행정복지센터 앞 육교,시도,,관평로,경기도 안양시 동안구 관평로138번길 52,37.3901524,126.9651204,84.6,5.5,,5,4,1.1,,Y,경사로,1,,,1992-10-07,N,양호,제한없음,,정기점검,2019-04-12,경기도 안양시청,2022-11-15,3830000,경기도 안양시
범계초교 앞 육교,시도,,평촌대로,경기도 안양시 동안구 평촌대로179번길 40,37.3873402,126.9553378,84.6,5.5,,5,4,1.1,,Y,경사로,1,,,1992-10-29,N,양호,제한없음,,정기점검,2019-04-12,경기도 안양시청,2022-11-15,3830000,경기도 안양시
귀인초교 앞 육교,시도,,귀인로,경기도 안양시 동안구 귀인로 247,37.3874853,126.9661254,90.4,5.5,,5,4,1.1,,Y,경사로,1,,,1992-04-09,N,양호,제한없음,,정기점검,2019-04-12,경기도 안양시청,2022-11-15,3830000,경기도 안양시
범계중학교 앞 육교,시도,,귀인로,경기도 안양시 동안구 귀인로 155,37.3845541,126.9563174,85.6,5.5,,5.5,4,1.1,,Y,경사로,1,,,1992-04-18,N,양호,제한없음,,정기점검,2019-04-12,경기도 안양시청,2022-11-15,3830000,경기도 안양시
명학역 앞 육교,시도,,만안로,경기도 안양시 만안구 만안로 19,37.3851652,126.9346205,24.2,6,,6,5,1.1,,Y,승강기,1,,,2012-01-13,Y,양호,제한없음,,정기점검,2019-06-30,경기도 안양시청,2022-11-15,3830000,경기도 안양시
진흥 육교,시도,,만안로,경기도 안양시 만안구 만안로 202,37.399255,126.9245448,29.1,6,,6,6,1.1,,Y,승강기,1,,,2017-07-12,Y,양호,제한없음,,정기점검,2019-04-19,경기도 안양시청,2022-11-15,3830000,경기도 안양시
펜타힐즈보도육교,시도,,대로1류,경상북도 경산시 펜타힐즈로,35.828473,128.719263,155.4,5.7,,5,5,1.8,3,Y,엘리베이터,2,,,2017-01-25,Y,양호,제한없음,,정기점검,2017-01-25,경상북도 경산시청,2022-11-30,5130000,경상북도 경산시
중방보도육교,기타,,하천,경상북도 경산시 강변동로,35.826319,128.730438,122,1.2,,4.5,2,1.8,7,Y,경사로,2,,,2012-10-30,Y,양호,제한없음,,정기점검,2012-10-30,경상북도 경산시청,2022-11-30,5130000,경상북도 경산시
정평보도육교,기타,,하천,경상북도 경산시 강변동로,35.837304,128.730337,115,1.2,,4.5,3,1.8,7,Y,경사로,2,,,2016-09-30,Y,양호,제한없음,,정기점검,2016-09-30,경상북도 경산시청,2022-11-30,5130000,경상북도 경산시
중산(보도)육교,기타,,경부 철도,경상북도 경산시 옥산로,35.831304,128.722594,30,7.1,,4.5,3,1.8,5,Y,경사로,2,,,2007-10-30,Y,보통,제한없음,,정기점검,2017-10-30,경상북도 경산시청,2022-11-30,5130000,경상북도 경산시
옥곡(보도)육교,기타,,경부 철도,경상북도 경산시 옥산길,35.812219,128.730696,98,7.1,,4.5,3,1.8,5,Y,경사로,2,,,2008-10-30,Y,보통,제한없음,,정기점검,2008-10-30,경상북도 경산시청,2022-11-30,5130000,경상북도 경산시
신안육교,시도,3번,신안로,경상남도 진주시 신안동 340,35.1832619,128.0707412,36.6,4.5,3.5,4.5,3,1.2,6,N,없음,,없음,,1995-01-01,N,양호,제한없음,,정기점검,2022-12-12,경상남도 진주시청,2022-12-12,5310000,경상남도 진주시
도동육교,시도,3번,대신로,경상남도 진주시 하대동 291-1,35.18916777,128.116881,28.9,4.5,3.5,4.5,3,1.2,6,N,없음,,없음,,1992-01-01,N,양호,제한없음,,정기점검,2022-12-12,경상남도 진주시청,2022-12-12,5310000,경상남도 진주시
칠암육교,시도,3번,동진로,경상남도 진주시 칠암동 130-7,35.17902872,128.0961044,20.5,4.5,3.5,4.5,3,1.2,6,N,없음,,없음,,1996-01-01,N,양호,제한없음,,정기점검,2022-12-12,경상남도 진주시청,2022-12-12,5310000,경상남도 진주시
상대육교,시도,3번,동진로,경상남도 진주시 상대동 332-1,35.18024326,128.1092772,20.5,4.5,3.5,4.5,3,1.2,5,N,없음,,없음,,1994-01-01,N,양호,제한없음,,정기점검,2022-12-12,경상남도 진주시청,2022-12-12,5310000,경상남도 진주시
개양육교,시도,3번,진주대로,경상남도 진주시 가좌동 산 80-6,35.1796118,128.1045126,32.5,4.5,3.5,4.5,3,1.2,6,Y,경사로,1,없음,,2006-01-01,N,양호,제한없음,,정기점검,2022-12-12,경상남도 진주시청,2022-12-12,5310000,경상남도 진주시
가좌육교,시도,대로1,진주대로,경상남도 진주시 가좌동 996-12,35.15020213,128.1038711,32,4.5,3.5,4.5,3,1.2,,N,없음,,없음,,,N,양호,제한없음,,정기점검,2022-12-12,경상남도 진주시청,2022-12-12,5310000,경상남도 진주시
혁신육교,시도,대로1,에나로,경상남도 진주시 충무공동 294,35.17527917,128.1453082,57,4.5,3.5,4.5,6.5,1.2,,Y,없음,,없음,,2011-01-01,N,양호,제한없음,,정기점검,2022-12-12,경상남도 진주시청,2022-12-12,5310000,경상남도 진주시
내동육교,일반국도,3호,순환로,경상남도 진주시 내동면 독산리 46-15,35.16399181,128.0674456,40,4.5,3.5,4.5,3,1.2,,Y,없음,,없음,,,N,양호,제한없음,,정기점검,2022-12-12,경상남도 진주시청,2022-12-12,5310000,경상남도 진주시
정촌산단육교(1),기타,0,화개천로,경상남도 진주시정촌면 예하리 1327,35.126624,128.1043619,26,4.5,3.5,4.5,3.5,1.2,,N,없음,,없음,,2011-01-01,N,양호,제한없음,,정기점검,2022-12-12,경상남도 진주시청,2022-12-12,5310000,경상남도 진주시
정촌산단육교(2),기타,0,화개천로,경상남도 진주시정촌면 예하리 1327,35.12254289,128.1024309,55,4.5,3.5,4.5,3.5,1.2,,N,경사로,,없음,,2011-01-01,N,양호,제한없음,,정기점검,2022-12-12,경상남도 진주시청,2022-12-12,5310000,경상남도 진주시
점봉육교(점봉초),일반국도,37호선,세종로,경기도 여주시 점봉동 343-2,37.275701,127.637752,29.8,5,,4.5,3.3,2,0,N,없음,,,,1996-01-01,Y,양호,제한없음,,정기점검,2022-05-08,경기도 여주시청,2022-11-01,5700000,경기도 여주시
교리육교(여주대),일반국도,37호선,세종로,경기도 여주시 교동 46-4,37.267992,127.637736,29.8,5,,4.5,3.3,2,0,Y,경사로,2,,,1999-01-01,Y,양호,제한없음,,정기점검,2022-05-08,경기도 여주시청,2022-11-01,5700000,경기도 여주시
교리2육교(여주고),일반국도,37호선,세종로,경기도 여주시 교동 32-3,37.258077,127.645893,30,5,,4.5,3.5,2,0,Y,경사로,2,,,2006-01-01,Y,양호,제한없음,계단보수,정기점검,2022-05-08,경기도 여주시청,2022-11-01,5700000,경기도 여주시
동미교(경기관광고),지방도,88호선,여양로,경기도 여주시 대신면 율촌리 268-7,37.375674,127.590802,7,4.5,,4.5,3.5,2,0,N,없음,,,,1982-01-01,N,양호,제한없음,,정기점검,2022-08-12,경기관광고등학교,2022-11-01,5700000,경기도 여주시
연라육교(연라초),지방도,333호선,여주남로,경기도 여주시 월송동 339-12,37.277511,127.612584,29.6,5.2,,4.5,4,2,0,N,없음,,,,2012-01-01,Y,양호,제한없음,,정기점검,2022-08-10,경기도 여주시청,2022-11-01,5700000,경기도 여주시
신해보도육교(현진에버빌아파트),일반국도,3호선,경충대로,경기도 여주시 가남읍 신해리 635-56,37.210793,127.541919,41.3,5.1,,4.5,4,2,0,Y,엘리베이터,2,,,2009-01-01,Y,양호,제한없음,,정기점검,2018-12-17,국토교통부 수원국토관리사무소,2022-11-01,5700000,경기도 여주시
양평보도육교,기타,,경의중앙선,,37.49410673,127.4911801,85,7,15,5,4,1.5,4,N,없음,0,없음,0,1995-12-30,N,양호,제한없음,바닥+시설물 보수,정기점검,2022-10-12,경기도 양평군청,2022-11-28,4170000,경기도 양평군
창대보도육교,기타,,경의중앙선,,37.48633286,127.4972236,20,7,15,5,4,1.5,2,N,없음,0,없음,0,2009-12-30,N,양호,제한없음,바닥+시설물 보수,정기점검,2022-10-12,경기도 양평군청,2022-11-28,4170000,경기도 양평군
호계3동 대림(아) 앞 육교,일반국도,국도1호선,경수대로,경기도 안양시 동안구 경수대로 446,37.3632713,126.960806,45.6,5.5,,5,4,1.1,,Y,승강기,1,,,2003-12-27,N,양호,제한없음,,정기점검,2019-04-12,경기도 안양시청,2022-11-15,3830000,경기도 안양시
상현보도육교,일반국도,광로2-1,국도43호선,경기도 용인시 수지구 포은대로 37,37.29946846,127.0647334,130.0,,,4.5,4.5,,,Y,엘리베이터,,,,2012-09-30,N,양호,제한없음,,정기점검,2022-10-19,경기도 용인시 수지구 건설도로과,2022-12-19,4050000,경기도 용인시
신봉초교 앞 보도육교,시도,대로3-1,신봉1로,경기도 용인시 수지구 신봉동 957,37.32900888,127.0677148,34,,,4.5,4.5,,,Y,엘리베이터,,,,2016-02-19,N,양호,제한없음,,정기점검,2022-10-19,경기도 용인시 수지구 건설도로과,2022-12-19,4050000,경기도 용인시
꽃메사거리 보도육교,일반국도,중로2-1,국도43호선,경기도 용인시 수지구 동백죽전대로 1066,37.32477086,127.1226031,42,,,5,2.5,,,Y,엘리베이터,,,,2019-02-11,N,양호,제한없음,,정기점검,2022-10-19,경기도 용인시 수지구 건설도로과,2022-12-19,4050000,경기도 용인시
이마트연결 보도육교,기타,성복천,성복천,경기도 용인시 수지구 포은대로 552,37.32532492,127.1100039,113,,,4.5,5,,,Y,경사로,,,,2006-12-31,N,보통,제한없음,,정기점검,2022-10-19,경기도 용인시 수지구 건설도로과,2022-12-19,4050000,경기도 용인시
삼일APT앞 육교,기타,,충현로,세종특별자치시 조치원읍 충현로 72,36.59534839,127.297037,27.5,5.4,0.5,4,3,1.2,11,N,없음,0,없음,0,2009-01-01,N,보통,제한없음,없음,정기점검,2021-12-17,세종시 도로관리사업소,2022-11-11,5690000,세종특별자치시
세종고 앞 육교,기타,,허만석로,세종특별자치시 조치원읍 조치원중고길 10,36.6113263,127.298987,28.8,9.8,0.5,8,3,1.2,28,N,없음,0,없음,0,2001-01-01,N,보통,제한없음,없음,정기점검,2021-12-17,세종시 도로관리사업소,2022-11-11,5690000,세종특별자치시
수원지 앞 육교,기타,,수원지길,세종특별자치시 조치원읍 수원지길 57,36.60619933,127.3009694,35,9.5,0.5,8,3,1.1,32,N,없음,0,없음,0,2001-01-01,N,보통,제한없음,없음,정기점검,2021-12-17,세종시 도로관리사업소,2022-11-11,5690000,세종특별자치시
욱일APT 앞 육교,기타,,충현로,세종특별자치시 조치원읍 충현로 159,36.60293108,127.2941813,150,6.3,0.5,5,3,1.2,36,Y,승강기(엘리베이터),2,없음,0,1996-01-01,N,보통,제한없음,없음,정기점검,2021-12-17,세종시 도로관리사업소,2022-11-11,5690000,세종특별자치시
전의역 앞 육교,기타,,만세길,세종특별자치시 전의면 만세길 10,36.67836829,127.2036578,88,5.4,0.5,4,3.2,1.1,40,N,없음,0,없음,0,1996-01-01,N,미흡,제한없음,없음,정기점검,2021-12-17,세종시 도로관리사업소,2022-11-11,5690000,세종특별자치시
온빛 초 육교,기타,,만남로,세종특별자치시 만남로 174,36.51462797,127.2403716,43.5,4.795,,3,3.5,1.1,42,Y,승강기(엘리베이터),1,없음,0,2015-11-01,Y,양호,제한없음,없음,정기점검,2021-12-17,세종시 도로관리사업소,2022-11-11,5690000,세종특별자치시
미르 초 육교,기타,,나리로,세종특별자치시 나리로 26-10,36.47313162,127.2544816,65.55,4.8,,3,3,1.2,52,Y,승강기(엘리베이터),1,없음,0,2015-11-01,Y,양호,제한없음,없음,정기점검,2021-12-17,세종시 도로관리사업소,2022-11-11,5690000,세종특별자치시
나래초보행교,기타,,달빛1로,세종특별자치시 달빛1로 108,36.5090014,127.2463514,39.8,5,,4,3.5,1.4,54,Y,승강기(엘리베이터),2,없음,0,2018-09-01,Y,양호,제한없음,없음,정기점검,2021-12-17,세종시 도로관리사업소,2022-11-11,5690000,세종특별자치시
가득초육교,기타,,세종로,세종특별자치시 세종로 941,36.48771564,127.2432312,40.8,5.611,,4,6.5,1.1,38,Y,승강기(엘리베이터),2,없음,0,2017-11-01,Y,양호,제한없음,없음,정기점검,2021-12-17,세종시 도로관리사업소,2022-11-11,5690000,세종특별자치시
엄사육교,기타,01월 03일,대로,충청남도 계룡시 엄사면 엄사리 95-7,36.292687,127.242539,183,5,5,5,33,1.1,10,Y,경사로,2,,,, ,양호,제한없음,,정기점검,2017-11-24,계룡시,2020-10-05,5580000,충청남도 계룡시
검산육교,기타,대로3-2,도작로,전라북도 김제시 도작로 111,35.805464,126.898834,30,,,4.8,3.3,,,N,없음,,,,, ,보통,제한없음,,정기점검,2017-05-10,전라북도 김제시청,2020-10-29,4710000,전라북도 김제시
계림육교,구도,,중앙로,광주광역시 동구 중앙로 323(계림동),35.16055204,126.9204748,18,4.7,0.5,4.4,3.4,1.1,2,N,없음,,,,1972-01-01, ,보통,제한없음,,정기점검,2021-12-15,광주광역시 동구청,2022-09-29,3590000,광주광역시 동구
남초교육교,구도,,남문로,광주광역시 동구 남문로622번길 1(소태동),35.126779,126.931509,28.8,4.8,0.5,4.4,3,1.1,2,N,없음,,,,1992-01-01, ,보통,제한없음,,정기점검,2021-12-15,광주광역시 동구청,2022-09-29,3590000,광주광역시 동구
도내기시장앞육교,구도,,필문대로,광주광역시 동구 필문대로 293(서석동),35.145289,126.926855,27.4,4.6,0.5,4.4,3.5,1.1,2,N,없음,,,,1993-01-01, ,양호,제한없음,,정기점검,2021-12-15,광주광역시 동구청,2022-09-29,3590000,광주광역시 동구
계림제1육교,구도,,중앙로,광주광역시 동구 중앙로 359(계림동),35.163729,126.919445,37,4.7,0.5,4.5,3,1.1,2,N,없음,,,,1998-01-01, ,양호,제한없음,,정기점검,2021-12-15,광주광역시 동구청,2022-09-29,3590000,광주광역시 동구
대림육교,일반국도,35,태백로,강원도 태백시 태백로 1037,37.16512595,128.9941157,24,5.8,5,4.5,4,1.3,0,Y,점자블록+경사로,2,없음,0,1994-01-01,Y,양호,제한없음,육교도색+데크보수,정기점검,2020-11-23,강원도 태백시청,2022-09-28,4220000,강원도 태백시
상장육교,일반국도,35,태백로,강원도 태백시 태백로 1221,37.15068648,128.9921156,22.6,5.8,5,4.2,3,1.3,0,Y,점자블록+경사로,2,없음,0,1991-01-01,N,양호,제한없음,육교도색+데크보수,정기점검,2020-11-25,강원도 태백시청,2022-09-28,4220000,강원도 태백시
월계육교,특별시도,2805,미아~상계선,서울특별시 강북구 월계로 105-3,37.61534047,127.0392407,22,9,0,8.5,3.5,1.1,3,N,없음,0,없음,0,1980-02-28,N,보통,제한없음,균열보수,정기점검,2022-08-24,서울특별시 강북구청,2022-09-26,3080000,서울특별시 강북구
성광여고육교,시도,,남부순환도로,울산광역시 남구 무거동 남부순환도로,35.541517,129.264941,41.4,,,4.5,4,,,N,없음,,,,2000-01-01,N,양호,제한없음,,정기점검,2022-06-20,울산광역시청,2022-08-24,6310000,울산광역시
서부초교육교,시도,,봉수로,울산광역시 동구 서부동 봉수로,35.525128,129.424415,21,,,5,4,,,N,없음,,,,1995-01-01,N,양호,제한없음,,정기점검,2022-06-20,울산광역시청,2022-08-24,6310000,울산광역시
녹수초교육교,시도,,봉수로,울산광역시 동구 서부동 봉수로,35.530089,129.429991,25.5,,,4.8,4,,,N,없음,,,,1998-01-01,N,양호,제한없음,,정기점검,2022-06-20,울산광역시청,2022-08-24,6310000,울산광역시
청운여중육교,시도,,방어진순환도로,울산광역시 동구 서부동 방어진순환도로,35.536263,129.429451,26,,,5,4,,,N,없음,,,,1998-01-01,N,양호,제한없음,,정기점검,2022-06-20,울산광역시청,2022-08-24,6310000,울산광역시
내황초교육교,시도,,반구로,울산광역시 중구 반구동 내황13길,35.552009,129.348251,19.9,,,4.5,4,,,Y,경사로,,,,2006-01-01,N,양호,제한없음,,정기점검,2022-06-20,울산광역시청,2022-08-24,6310000,울산광역시
우정교보행육교,시도,,이예로,울산광역시 중구 태화동 이예로,35.559841,129.292801,45.5,,,4.5,3.5,,,Y,엘리베이터,,,,2016-01-01,N,양호,제한없음,,정기점검,2022-06-20,울산광역시청,2022-08-24,6310000,울산광역시
대복보도육교,시도,,구국도7호선,울산광역시 울주군 웅촌면 웅촌로,35.480894,129.219207,23.5,,,5,3.1,,,N,없음,,,,1999-01-01,N,양호,제한없음,,정기점검,2022-06-20,울산광역시청,2022-08-24,6310000,울산광역시
웅촌보도육교,시도,,구국도7호선,울산광역시 울주군 웅촌면 웅촌로,35.463764,129.207837,46,,,5,4,,,N,없음,,,,1998-01-01,N,양호,제한없음,,정기점검,2022-06-20,울산광역시청,2022-08-24,6310000,울산광역시
소입현육교,일반국도,19호선,남해대로,경상남도 남해군 남해읍 입현리 1536-3,34.831094,127.905569,20,5,,4.3,5,1.5,,Y,엘리베이터,1,,,2020-04-08,Y,양호,제한없음,,정기점검,2020-04-08,경상남도 남해군청 건설교통과,2022-09-23,5430000,경상남도 남해군
육교,군도,819,녹색로,전라남도 영암군 삼호읍 녹색로 956,34.75510121,126.4746351,32,5,,5,3.7,1,0,N,없음,0,없음,0,, ,양호,제한없음,,정기점검,2017-01-02,전라남도 영암군청,2022-08-16,4940000,전라남도 영암군
능골,시도,,국회대로,서울특별시 양천구 지양로16길 15,37.52466465,126.8328723,81,6,,4.5,4,1.2,4,N,점자블록,1,없음,0,1992-07-01,N,양호,제한없음,일상유지보수,정밀안전진단,2022-07-14,서울특별시 양천구청,2022-08-08,3140000,서울특별시 양천구
당모래,시도,,국회대로,서울특별시 양천구 국회대로 90,37.52683024,126.8449155,53,6,,4.5,4,1.2,10,N,점자블록,1,없음,0,1992-07-01,N,보통,제한없음,일상유지보수,정기점검,2022-06-30,서울특별시 양천구청,2022-08-08,3140000,서울특별시 양천구
은빛,시도,,국회대로,서울특별시 양천구 국회대로 170,37.52811368,126.854009,53,6,,4.5,4,1.2,10,N,점자블록,1,없음,0,1992-07-01,N,보통,제한없음,일상유지보수,정기점검,2022-06-30,서울특별시 양천구청,2022-08-08,3140000,서울특별시 양천구
소망,시도,,국회대로,서울특별시 양천구 국회대로 210,37.52870643,126.8581323,59,6,,4.5,5,1.2,10,N,점자블록,1,없음,0,1992-07-01,N,보통,제한없음,일상유지보수,정기점검,2022-06-30,서울특별시 양천구청,2022-08-08,3140000,서울특별시 양천구
잣절,시도,,남부순환로,서울특별시 양천구 남부순환로 699,37.50694702,126.8444474,40,6,,4.3,3,1.2,6,N,점자블록,1,없음,0,1977-12-01,N,양호,제한없음,일상유지보수,정밀안전진단,2022-07-14,서울특별시 양천구청,2022-08-08,3140000,서울특별시 양천구
신정기지,구도,,목동남로,서울특별시 양천구 국회대로 170,37.52811368,126.854009,185,6,,4.5,4,1.2,12,Y,점자블록,1,엘리베이터,1,1993-09-01,N,양호,제한없음,일상유지보수,정기점검,2022-06-30,서울특별시 양천구청,2022-08-08,3140000,서울특별시 양천구
갈산,구도,,목동남로,서울특별시 양천구 목동로3길 41,37.51360041,126.8697042,23,6,,4.7,4,1.2,6,Y,점자블록,1,엘리베이터,1,1998-06-01,N,양호,제한없음,일상유지보수,정밀안전진단,2022-07-14,서울특별시 양천구청,2022-08-08,3140000,서울특별시 양천구
신월IC,시도,,남부순환로,서울특별시 양천구 남부순환로 1,37.525423,126.834818,85,6,,4.2,3.5,1.2,4,N,점자블록,1,없음,0,2011-11-04,N,양호,제한없음,일상유지보수,정기점검,2022-06-30,서울특별시 양천구청,2022-08-08,3140000,서울특별시 양천구
금옥여고앞,시도,,신정로,서울특별시 양천구 신정로 213,37.51096532,126.8439717,33,6,,4.7,5.5,1.2,6,Y,점자블록,1,엘리베이터,1,2001-12-01,N,양호,제한없음,일상유지보수,정기점검,2022-06-30,서울특별시 양천구청,2022-08-08,3140000,서울특별시 양천구
목동운동장앞,시도,,안양천로,서울특별시 양천구 목동동로 298,37.52813225,126.876521,40,6,,4.5,4.6,1.3,3,Y,점자블록+경사로,2,없음,0,2006-06-01,N,양호,제한없음,일상유지보수,정밀안전진단,2022-07-14,서울특별시 양천구청,2022-08-08,3140000,서울특별시 양천구
신정교앞,시도,,안양천로,서울특별시 양천구 신목로 5,37.51722556,126.876469,80,6,,4.5,3.4,1.3,4,Y,점자블록+경사로,2,없음,0,2008-06-01,N,양호,제한없음,일상유지보수,정밀안전진단,2022-07-14,서울특별시 양천구청,2022-08-08,3140000,서울특별시 양천구
이대목동병원,시도,,안양천로,서울특별시 양천구 안양천로 1071,37.53698185,126.8867439,40,6,,4.5,4.6,1.3,3,Y,점자블록+경사로,2,없음,0,2009-02-01,N,양호,제한없음,일상유지보수,정밀안전진단,2022-07-14,서울특별시 양천구청,2022-08-08,3140000,서울특별시 양천구
신은,시도,,신월로,서울특별시 양천구 신정이펜2로 55,37.51513262,126.8308648,228,6,,4.5,4.3,1.3,4,Y,점자블록+경사로,2,없음,0,2002-06-26,N,보통,제한없음,일상유지보수,정기점검,2022-06-30,서울특별시 양천구청,2022-08-08,3140000,서울특별시 양천구
오금,구도,,목동남로,서울특별시 양천구 목동남로4길 2,37.5082875,126.8645355,26,6,,4.5,4,1.2,6,N,점자블록,1,없음,0,1994-01-01,N,보통,제한없음,일상유지보수,정밀안전진단,2022-07-14,서울특별시 양천구청,2022-08-08,3140000,서울특별시 양천구
양원,시도,,화곡로,서울특별시 양천구 화곡로 16,37.53821733,126.8231052,27,6,,4.5,4,1.2,8,N,점자블록,1,없음,0,1994-07-01,N,보통,제한없음,일상유지보수,정밀안전진단,2022-07-14,서울특별시 양천구청,2022-08-08,3140000,서울특별시 양천구
대도보도육교,구도,,선릉로,서울특별시 강남구 선릉로 209,37.4926466,127.0533774,26,,,4.5,4,,,Y,엘리베이터+점자블록,,,,2005-06-01,N,양호,제한없음,,정기점검,2021-12-17,서울특별시 강남구청,2022-08-11,3220000,서울특별시 강남구
양전보도육교,구도,,개포로,서울특별시 강남구 개포로 513,37.49028284,127.0694253,17,,,4.5,3.6,,,Y,점자블록,,,,1989-10-01,N,보통,제한없음,,정기점검,2021-12-17,서울특별시 강남구청,2022-08-11,3220000,서울특별시 강남구
구름다리보도육교,시도,,양재대로,서울특별시 강남구 양재대로 340,37.4716355,127.0525917,41,,,4.5,4.3,,,Y,엘리베이터+점자블록,,,,1996-07-01,N,보통,제한없음,,정기점검,2021-12-17,서울특별시 강남구청,2022-08-11,3220000,서울특별시 강남구
일원보도육교,시도,,양재대로,서울특별시 강남구 일원로9길 6,37.48932458,127.082097,45,,,4.5,3,,,Y,점자블록+경사로,,,,1989-12-01,N,보통,제한없음,,정기점검,2021-12-17,서울특별시 강남구청,2022-08-11,3220000,서울특별시 강남구
양재보도육교,시도,,양재대로,서울특별시 강남구 양재대로 781,37.49328988,127.0951503,77,,,6.5,4,,,Y,엘리베이터+점자블록,,,,2003-12-01,N,보통,제한없음,,정기점검,2021-12-17,서울특별시 강남구청,2022-08-11,3220000,서울특별시 강남구
양재천보도육교,구도,,양재천로,서울특별시 강남구 언주로30길 56,37.48806952,127.0534832,39,,,4.6,2.8,,,Y,엘리베이터+점자블록,,,,2004-04-01,N,보통,제한없음,,정기점검,2021-12-17,서울특별시 강남구청,2022-08-11,3220000,서울특별시 강남구
말죽거리보도육교,시도,,남부순환로,서울특별시 강남구 남부순환로 2633,37.48536752,127.0377727,35,,,4.5,4,,,Y,엘리베이터+점자블록,,,,1994-12-01,N,보통,제한없음,,정기점검,2021-12-17,서울특별시 강남구청,2022-08-11,3220000,서울특별시 강남구
일원탄천보도육교,시도,,남부순환로,,37.496697,127.088375,88,,,5.5,5.8,,,Y,점자블록+경사로,,,,2010-09-08,N,보통,제한없음,,정기점검,2021-12-17,서울특별시 강남구청,2022-08-11,3220000,서울특별시 강남구
수명산보도육교,시도,4204,수명로,서울특별시 강서구 내발산동 751-2,37.553206,126.825094,160,4.5,0,4.5,4,1.2,4,N,없음,0,없음,0,2008-06-01,N,양호,제한없음,없음,정밀점검,2021-08-13,서울특별시 강서구청 도로과,2022-08-08,3150000,서울특별시 강서구
가곡초교입구보도육교,시도,5103,강서로,서울특별시 강서구 발산동 655-10,37.556773,126.836942,32,5,0,5,4,1.2,2,Y,엘리베이터,2,엘리베이터,2,2005-08-01,N,양호,제한없음,없음,정기점검,2022-06-24,서울특별시 강서구청 도로과,2022-08-08,3150000,서울특별시 강서구
스카이파크보도육교,시도,42,개화동로,서울특별시 강서구 방화동 620-260,37.563795,126.806728,54,4.7,0,4.7,4.5,1.2,2,Y,엘리베이터,1,엘리베이터,1,2011-11-01,N,양호,제한없음,없음,정밀점검,2021-08-13,서울특별시 강서구청 도로과,2022-08-08,3150000,서울특별시 강서구
증미역연결보도육교,구도,,양천로,서울특별시 강서구 가양동 449-27,37.558829,126.861266,60,3,0,3,4,1.2,2,N,없음,0,없음,0,2010-12-07,N,양호,제한없음,없음,정밀점검,2021-08-13,서울특별시 강서구청 도로과,2022-08-08,3150000,서울특별시 강서구
숭덕초교앞 보도육교,시도,,정릉로,서울특별시 성북구 정릉로 279,37.603501,127.014203,44.6,,,4.5,4,,,Y,엘리베이터,2,,,, ,양호,제한없음,,정기점검,2022-06-08,서울특별시 성북구청,2022-07-22,3070000,서울특별시 성북구
행당초교앞보도육교,시도,,내곡~월곡선-30(응봉로),서울특별시 성동구 고산자로 194,37.55754545,127.0340916,26,,,4.5,4,,,N,없음,,,,,N,보통,제한없음,,정기점검,2020-04-17,서울특별시 성동구청,2022-08-25,3030000,서울특별시 성동구
응봉산대현산간생태육교,시도,,한남~응봉선-2703,서울특별시 성동구 독서당로 373,37.54917648,127.0292613,26.5,,,4.5,8,,,N,없음,,,,,N,보통,제한없음,,정기점검,2020-04-17,서울특별시 성동구청,2022-08-25,3030000,서울특별시 성동구
행당스카이워크,구도,,고산자로2길,서울특별시 성동구 고산자로2길 77,37.55682075,127.0394077,78.5,,,13.3,5,,,Y,엘리베이터,2,,,,Y,양호,제한없음,,정기점검,2020-04-17,서울특별시 성동구청,2022-08-25,3030000,서울특별시 성동구
상계역육교,기타,,상계로,서울특별시 노원구 한글비석로 396,37.6623030184,127.0735817469,18.6,4.5,,4.5,4,,,N,없음,,접속계단,,1992-07-31,N,양호,제한없음,,정기점검,2022-04-25,서울특별시 노원구 토목과,2022-08-17,3100000,서울특별시 노원구
상징탑육교,기타,,동일로,서울특별시 노원구 동일로 1229,37.6389605005,127.0663451421,70.2,4.5,,4.5,5,,,Y,경사로,,접속계단,,1995-02-12,N,양호,제한없음,,정기점검,2022-04-25,서울특별시 노원구 토목과,2022-08-17,3100000,서울특별시 노원구
광운대역육교,기타,,마들로1길,서울특별시 노원구 마들로1길 44,37.6236552235,127.0639879564,200,4.5,,4.5,4.5,,,Y,엘리베이터,,접속계단,,1989-12-25,N,보통,제한없음,,정기점검,2022-04-25,서울특별시 노원구 토목과,2022-08-17,3100000,서울특별시 노원구
삼육육교,기타,,화랑로,서울특별시 노원구 화랑로 815,37.6433573690,127.1088503431,44,4.5,,4.5,4,,,Y,엘리베이터,,접속계단,,2009-12-10,N,양호,제한없음,,정기점검,2022-04-25,서울특별시 노원구 토목과,2022-08-17,3100000,서울특별시 노원구
백운육교,기타,,동일로,서울특별시 노원구 누원로 18,37.6862145785,127.0528727324,166.6,4.5,,4.5,4,,,Y,경사로,,접속계단+캐노피,,2009-12-10,N,양호,제한없음,,정기점검,2022-04-25,서울특별시 노원구 토목과,2022-08-17,3100000,서울특별시 노원구
수락육교,기타,,동일로,서울특별시 노원구 동일로 1794,37.6886440412,127.0558536237,110,4.5,,4.5,3.4,,,Y,경사로,,접속계단,,2009-12-10,N,양호,제한없음,,정기점검,2022-04-25,서울특별시 노원구 토목과,2022-08-17,3100000,서울특별시 노원구
온의육교,시도,대로1-2,경춘로,강원도 춘천시 온의동 산30-8,37.863336,127.719436,34,,13,0,,,,Y,승강기,2,,,1997-08-01,N,보통,제한없음,,정기점검,2019-12-19,강원도 춘천시청,2022-08-26,4180000,강원도 춘천시
칠전육교,시도,대로1-2,경춘로,강원도 춘천시 칠전동 596,37.840538,127.714284,65,,13,0,5,,,Y,경사로,,,,1998-10-01,N,보통,제한없음,,정기점검,2019-12-19,강원도 춘천시청,2022-08-26,4180000,강원도 춘천시
별내1육교(한별초등학교 앞 육교),시도,대로2-1호선,순화궁로,경기도 남양주시 별내3로 23,37.64480145,127.1176916,38,5,,5,,,,Y,점자블럭+경사로,,,,,Y,양호,제한없음,,정기점검,2022-06-15,경기도 남양주시청,2022-08-22,3990000,경기도 남양주시
별내2육교(신일 유토빌 앞 육교),시도,대로2-3호선,순화궁로,경기도 남양주시 별내4로 25,37.64662797,127.1142537,38,5,,5,,,,Y,점자블럭+경사로,,,,,Y,양호,제한없음,,정기점검,2022-06-15,경기도 남양주시청,2022-08-22,3990000,경기도 남양주시
별내3육교(대원칸타빌 앞 육교),시도,대로2-3호선,불암로,경기도 남양주시 불암로 336,37.66167002,127.1267984,38,5,,5,,,,Y,점자블럭+경사로,,,,,Y,양호,제한없음,,정기점검,2022-06-15,경기도 남양주시청,2022-08-22,3990000,경기도 남양주시
별내4육교(별내동 주민센터앞육교),시도,대로1-1호선,별내2로,경기도 남양주시 별내3로 64-21,37.64616615,127.1218825,52.5,5,,5,,,,Y,점자블럭+경사로+엘리베이터,,,,,Y,양호,제한없음,,정기점검,2022-06-15,경기도 남양주시청,2022-08-22,3990000,경기도 남양주시
진접지구보도육교1.2(풍양육교),시도,대로2-1호선,해밀예당1로,경기도 남양주시 진접읍 해밀예당1로 109,37.71884601,127.1910173,46,5.9,,5,,,,Y,점자블럭+엘리베이터,,,,,N,양호,제한없음,,정기점검,2022-06-15,경기도 남양주시청,2022-08-22,3990000,경기도 남양주시
진접지구보도육교1.2(진접육교),시도,대로2-1호선,해밀예당1로,경기도 남양주시 진접읍 해밀예당1로 53,37.7148201,127.1869758,40,5.2,,5,,,,Y,점자블럭+엘리베이터,,,,,N,양호,제한없음,,정기점검,2022-06-15,경기도 남양주시청,2022-08-22,3990000,경기도 남양주시
다산육교,시도,대로지금1-1호선,다산지금로,경기도 남양주시 다산지금로 141,37.60023437,127.1743068,55.6,4.5,,5,,,,Y,점자블럭+엘리베이터,,,,,Y,양호,제한없음,,정기점검,2022-06-28,경기도 남양주시청,2022-08-22,3990000,경기도 남양주시
도농보도육교,기타,비법정도로,경춘로,경기도 남양주시 경춘로 367-18,37.60577935,127.1551897,23,4,,4,,,,Y,점자블럭+엘리베이터,,,,,N,양호,제한없음,,정기점검,2022-06-28,경기도 남양주시청,2022-08-22,3990000,경기도 남양주시
장승보도육교(의정부국토관리사무소육교현장),시도,23호선,금강로,경기도 남양주시 진접읍 금강로 1573,37.72960264,127.1941977,43.6,5,,5,,,,Y,점자블럭+엘리베이터,,,,,N,양호,제한없음,,정기점검,2022-06-15,경기도 남양주시청,2022-08-22,3990000,경기도 남양주시
진접보도육교,시도,23호선,금강로,경기도 남양주시 진접읍 금강로 1641,37.73655096,127.1947104,30,5,,5,,,,N,없음,,,,,N,양호,제한없음,,정기점검,2022-06-15,경기도 남양주시청,2022-08-22,3990000,경기도 남양주시
죽동보도육교,특별시도,광로 2-3,한밭대로,대전광역시 유성구 한밭대로 295(장대동),36.36645304,127.3334328,46,4.5,,4.5,4,,,Y,없음,2,엘리베이터,2,,N,미흡,제한없음,,정기점검,2022-08-02,대전광역시 유성구청,2022-08-22,3670000,대전광역시 유성구
월드컵보도육교,특별시도,광로 2-3,한밭대로,대전광역시 유성구 한밭대로 155(노은동),36.366831,127.321186,68,6.5,,4.5,4,,,Y,없음,2,엘리베이터,2,,N,보통,제한없음,,정기점검,2022-08-02,대전광역시 유성구청,2022-08-22,3670000,대전광역시 유성구
군포초교 보도육교,일반국도,47,군포로,경기도 군포시 군포로 463,37.34823766,126.9419284,29,5.5,,4.5,4,1,,N,없음,0,없음,0,1989-01-01,N,보통,제한없음,,정기점검,2022-11-01,경기도 군포시청,2022-11-03,4020000,경기도 군포시
4단지 보도육교,시도,,번영로,경기도 군포시 번영로 382,37.34945226,126.9259671,28.1,,,4.5,4,,,N,없음,0,엘리베이터,2,1996-01-01,N,보통,제한없음,,정기점검,2022-11-01,경기도 군포시청,2022-11-03,4020000,경기도 군포시
청덕초교앞 보도육교,시도,,정릉로,서울특별시 성북구 정릉로 161,37.608602,126.999603,34.6,,,4.5,3.6,,,Y,엘리베이터,2,,,, ,양호,제한없음,,정기점검,2022-06-09,서울특별시 성북구청,2022-07-22,3070000,서울특별시 성북구
국민대앞 보도육교,시도,,정릉로,서울특별시 성북구 정릉로 77,37.609903,126.996101,29,,,4.5,3.6,,,Y,엘리베이터,2,,,, ,양호,제한없음,,정기점검,2022-06-10,서울특별시 성북구청,2022-07-22,3070000,서울특별시 성북구
일신초교앞 보도육교,시도,,정릉로,서울특별시 성북구 월곡로 74,37.600401,127.040601,166,,,4.5,2.55,,,N,없음,,,,, ,양호,제한없음,,정기점검,2022-06-13,서울특별시 성북구청,2022-07-22,3070000,서울특별시 성북구
한국과학기술원앞 보도육교,시도,,화랑로,서울특별시 성북구 화랑로125,37.604811,127.045503,43.3,,,4.5,2,,,Y,엘리베이터,2,,,, ,양호,제한없음,,정기점검,2022-06-14,서울특별시 성북구청,2022-07-22,3070000,서울특별시 성북구
금강공원 공영주차장 앞 육교,시도,0,우장춘로,부산광역시 동래구 우장춘로192,35.223165,129.077341,24,4.5,,4.5,3,1.2,,N,없음,,,,1998-02-28, ,양호,제한없음,,정기점검,2022-09-27,동래구청,2022-11-14,3300000,부산광역시 동래구
안락동 롯데캐슬 앞 육교,시도,0,충렬대로,부산광역시 동래구 충렬대로 372,35.197559,129.099082,25.6,4.5,,4.5,3,1.2,,N,없음,,,,1993-02-01, ,양호,제한없음,,정기점검,2022-09-30,동래구청,2022-11-14,3300000,부산광역시 동래구
온천장역 앞 육교,시도,0,중앙대로,부산광역시 동래구 중앙대로 1523,35.221174,129.086511,50,4.5,,4.5,4.8,1.2,,N,없음,,,,1987-07-01, ,양호,제한없음,,정기점검,2022-09-30,동래구청,2022-11-14,3300000,부산광역시 동래구
명륜역 육교,시도,0,중앙대로,부산광역시 동래구 중앙대로 1414,35.212111,129.078911,112,4.5,,4.5,3,1.2,,N,없음,,,,2009-02-12, ,우수,제한없음,,정기점검,2022-09-29,동래구청,2022-11-14,3300000,부산광역시 동래구
금정문화회관 앞,일반국도,7번,중앙로,부산광역시 금정구 중앙대로1805번길 6,35.24524449,129.0926556,53.75,,,4.6,3,1.2,,Y,E/V형,2,,,, ,보통,제한없음,2017.11.  도색 완료,정기점검,2022-11-01,부산광역시 금정구청,2022-11-21,3350000,부산광역시 금정구
태광산업 앞,일반국도,7번,중앙로,부산광역시 금정구 중앙대로1841번길 3,35.24839613,129.0916822,38,,,4.8,3,1.2,,N,없음,,,,, ,양호,제한없음,2018.10. 도색 완료,정기점검,2022-11-01,부산광역시 금정구청,2022-11-21,3350000,부산광역시 금정구
서곡초교 앞,구도,,반송로,부산광역시 금정구 서금로 27,35.21862801,129.104521,18.6,,,4.7,2,1.2,,Y,경사로,1,,,, ,보통,제한없음,2020.12. 도색완료,정기점검,2022-11-01,부산광역시 금정구청,2022-11-21,3350000,부산광역시 금정구
동상초교 앞,일반국도,14번,반송로,부산광역시 금정구 반송로 376,35.21174966,129.1065875,21.2,,,5,2.5,1.2,,N,없음,,,,, ,보통,제한없음,2017.6.  도색 완료,정기점검,2022-11-01,부산광역시 금정구청,2022-11-21,3350000,부산광역시 금정구
충남여고앞 보도육교,시도,,동서대로,대전광역시 중구 동서대로 1361,36.33111601,127.4095723,36,4.9,5,4.5,4,1.2,14,Y,경사로,1,없음,1,1993-08-31,N,보통,제한없음,,정기점검,2022-11-01,대전광역시 중구청,2022-11-17,3650000,대전광역시 중구
오류동 보도육교,기타,,수침로,대전광역시 중구 수침로 54-22,36.32403193,127.4020094,71,6,5,5.5,3.5,1.2,10,Y,경사로,1,없음,1,1992-12-31,N,보통,제한없음,,정기점검,2022-11-01,대전광역시 중구청,2022-11-17,3650000,대전광역시 중구
산성동 보도육교,기타,,문화로46번길,대전광역시 중구 문화로46번길 54,36.30816072,127.3914718,27.9,6,5,5.5,4,1.2,10,Y,경사로,1,없음,1,1993-12-31,N,보통,제한없음,,정기점검,2022-11-01,대전광역시 중구청,2022-11-17,3650000,대전광역시 중구
문화동 보도육교,기타,,문화로94번길,대전광역시 중구 문화로94번길 45,36.30996358,127.3972769,27,6,5,5.5,3.5,1.2,10,Y,경사로,1,없음,1,1997-07-31,N,보통,제한없음,,정기점검,2022-11-01,대전광역시 중구청,2022-11-17,3650000,대전광역시 중구
버드내마을 아파트 앞 보도육교,시도,,계백로,대전광역시 중구 계백로 1510,36.31577204,127.3883388,32.5,6,5,5,2.5,1.2,9,Y,엘리베이터+경사로,1,엘리베이터,2,2001-11-30,N,보통,제한없음,,정기점검,2022-11-01,대전광역시 중구청,2022-11-17,3650000,대전광역시 중구
안영동 보도육교,시도,,대둔산로,대전광역시 중구 대둔산로128번길 2,36.28231876,127.3763437,37,6,5,5,4,1.2,11,Y,엘리베이터+경사로,1,엘리베이터,2,2004-12-31,N,보통,제한없음,,정기점검,2022-11-01,대전광역시 중구청,2022-11-17,3650000,대전광역시 중구
고성보도육교,기타,,경부선,대구광역시 북구 고성동1가 95-4,35.878123,128.585014,30,8,,7.5,4,,,Y,엘리베이터,,캐노피,1,2015-12-01, ,양호,제한없음,,정기점검,2022-06-24,대구광역시 북구청,2022-10-28,3450000,대구광역시 북구
팔달육교,시도,1-9호선,팔달로,대구광역시 북구 팔달동 130-1,35.898654,128.548255,33,5.5,,5,3,,,Y,엘리베이터,,캐노피,1,1992-09-01, ,양호,제한없음,,정기점검,2022-06-24,대구광역시 북구청,2022-10-28,3450000,대구광역시 북구
복현육교,시도,2-6호선,공항로,대구광역시 북구 경진로 47,35.89844931,128.6190935,25,5,,4.5,4,,,N,없음,,캐노피,1,1996-08-29, ,양호,제한없음,,정기점검,2022-06-24,대구광역시 북구청,2022-10-28,3450000,대구광역시 북구
검단육교,시도,1-39호선,검단로,대구광역시 북구 산격동 1543,35.90114981,128.6157981,31.1,5,,4.5,4,,,N,없음,,캐노피,1,1998-06-09, ,양호,제한없음,,정기점검,2022-06-24,대구광역시 북구청,2022-10-28,3450000,대구광역시 북구
동북육교,시도,1-4호선,동북로,대구광역시 북구 경진로 47,35.89509115,128.6181972,29.8,5.3,,4.5,4,,,N,없음,,캐노피,1,1998-05-16, ,양호,제한없음,,정기점검,2022-06-24,대구광역시 북구청,2022-10-28,3450000,대구광역시 북구
동호육교,시도,2-9호선,호국로,대구광역시 북구 학정동 451-6,35.957425,128.566076,46,4.7,,4.5,4,,,N,없음,,없음,0,1998-10-10, ,양호,제한없음,,정기점검,2022-06-24,대구광역시 북구청,2022-10-28,3450000,대구광역시 북구
태현육교,시도,1-9호선,태전로,대구광역시 북구 태전동 56-2,35.930045,128.539857,31,4.5,,4.5,4,,,N,없음,,없음,0,1999-02-01, ,양호,제한없음,,정기점검,2022-06-24,대구광역시 북구청,2022-10-28,3450000,대구광역시 북구
동천육교,시도,1-11호선,학정로,대구광역시 북구 구암동 832-2,35.942854,128.563635,69.5,5,,4.5,6,,,N,없음,,없음,0,1999-10-30, ,양호,제한없음,,정기점검,2022-06-24,대구광역시 북구청,2022-10-28,3450000,대구광역시 북구
구암육교,시도,1-11호선,학정로,대구광역시 북구 구암동 832-2,35.939327,128.562937,74,5,,4.5,6,,,N,없음,,없음,0,1999-10-30, ,양호,제한없음,,정기점검,2022-06-24,대구광역시 북구청,2022-10-28,3450000,대구광역시 북구
대구역육교,시도,1-3호선,중앙대로,대구광역시 북구 칠성동2가 302-155,35.876421,128.594877,51,5.7,,4.3,4,,,N,없음,,없음,0,2003-07-09, ,양호,제한없음,,정기점검,2022-06-24,대구광역시 북구청,2022-10-28,3450000,대구광역시 북구
사수육교,시도,1-294호선,내곡로,대구광역시 북구 사수동 979,35.901559,128.513193,34,5,,4.5,4,,,Y,경사로,,없음,0,2013-07-31, ,양호,제한없음,,정기점검,2022-06-24,대구광역시 북구청,2022-10-28,3450000,대구광역시 북구
지상경사로15,기타,,대산로,경기도 고양시 일산서구 대산로 246 (대화동),37.68047139,126.7515967,68.1,11.4,,4.5,5.4,,,Y,경사로,1,없음,,1993-08-30,Y,보통,제한없음,표면처리,정기점검,2022-06-17,경기도 고양시청,2022-11-10,3940000,경기도 고양시
지상경사로17,시도,74번,중앙로,"경기도 고양시 일산서구 중앙로 1388 (주엽동, 강선마을11단지아파트)",37.66834954,126.765681,94.5,15.8,,4.5,4.4,,,Y,경사로,1,없음,,1997-05-03,Y,보통,제한없음,탄성포장,정기점검,2022-06-17,경기도 고양시청,2022-11-10,3940000,경기도 고양시
지상경사로18,기타,,강선로,경기도 고양시 일산서구 강선로 168,37.67774582,126.7707145,61,10.2,,4.5,4.5,,,Y,경사로,1,없음,,1997-09-21,N,보통,제한없음,경사로 데크보수,정기점검,2022-06-17,경기도 고양시청,2022-11-10,3940000,경기도 고양시
지상경사로19,기타,,일산로,경기도 고양시 일산서구 일산로 614 (일산동),37.68113823,126.7608067,61,10.5,,4.5,4.5,,,Y,경사로,1,없음,,1997-08-12,Y,보통,제한없음,단면보수+탄성포장,정기점검,2022-06-17,경기도 고양시청,2022-11-10,3940000,경기도 고양시
충장육교,기타,,소원로,경기도 고양시 덕양구 소원로 49,37.61373849,126.8292768,92,92,,8,4,,,Y,엘리베이터,1,엘리베이터,1,2003-01-01,N,양호,제한없음,자전거 핸드레일 설치,정기점검,2022-06-15,경기도 고양시청,2022-11-10,3940000,경기도 고양시
킨텍스 보도육교,시도,100번,킨텍스로,경기도 고양시 일산서구 킨텍스로 217-59,37.66464875,126.7420642,88.8,88.8,,4.5,4.5,,,Y,경사로+엘리베이터,2,엘리베이터,1,2019-12-31,N,양호,제한없음,,정기점검,2022-06-17,경기도 고양시청,2022-11-10,3940000,경기도 고양시
탄현덕이보도육교,기타,,경의로,경기도 고양시 일산서구 경의로 956,37.70273093,126.760421,37.4,37.4,,4.5,4,,,Y,엘리베이터,1,엘리베이터,1,2020-04-21,N,양호,제한없음,,정기점검,2022-06-17,경기도 고양시청,2022-11-10,3940000,경기도 고양시
탄현역육교,지방도,359번,일현로,경기도 고양시 일산서구 일현로 97-11,37.69507267,126.7621663,43,43,,4.5,4,,,Y,경사로+엘리베이터,2,엘리베이터,1,2014-04-30,N,양호,제한없음,,정기점검,2022-06-17,경기도 고양시청,2022-11-10,3940000,경기도 고양시
태영동문육교,시도,92번,고양대로,경기도 고양시 일산서구 고양대로 624,37.68578216,126.7655771,43,43,,4.5,4,,,Y,경사로,1,없음,,2014-05-31,N,양호,제한없음,,정기점검,2022-06-17,경기도 고양시청,2022-11-10,3940000,경기도 고양시
토당초교앞보도육교,시도,71번,행신로,"경기도 고양시 덕양구 행신로 89, 887-8 (토당동)",37.61770701,126.8257797,24.6,24.6,,4.5,4,,,Y,엘리베이터,1,엘리베이터,1,2008-01-01,N,양호,제한없음,바닥 상판 보수,정기점검,2022-06-15,경기도 고양시청,2022-11-10,3940000,경기도 고양시
풍동육교,기타,,숲속마을로,경기도 고양시 일산동구 숲속마을1로 101,37.67083031,126.7996206,83.5,83.5,,4.6,4,,,Y,점자블럭+경사로,2,없음,,2006-09-25,N,양호,제한없음,,정기점검,2022-05-16,경기도 고양시청,2022-11-10,3940000,경기도 고양시
풍동육교,기타,,숲속마을로,경기도 고양시 일산동구 숲속마을1로 101,37.67083031,126.7996206,83.5,83.5,,4.6,4,,,Y,점자블럭+경사로,2,없음,,2006-09-25,N,양호,제한없음,,정기점검,2022-05-16,경기도 고양시청,2022-11-10,3940000,경기도 고양시
하이파크1육교,기타,,하이파크로,경기도 고양시 일산서구 하이파크로 113,37.70380951,126.7533094,125,125,,4.5,9.2,,,Y,경사로+엘리베이터,2,엘리베이터,1,2012-03-31,N,양호,제한없음,데크 교체,정기점검,2022-06-17,경기도 고양시청,2022-11-10,3940000,경기도 고양시
하이파크2육교,기타,,하이파크로,경기도 고양시 일산서구 하이파크3로 111,37.69977416,126.7510489,121,121,,4.5,9.2,,,Y,경사로+엘리베이터,2,엘리베이터,1,2012-03-31,N,양호,제한없음,데크 교체,정기점검,2022-06-17,경기도 고양시청,2022-11-10,3940000,경기도 고양시
하이파크3육교,기타,,하이파크로,경기도 고양시 일산서구 하이파크3로 61,37.69747377,126.7523172,111,111,,4.5,9.2,,,Y,경사로+엘리베이터,2,엘리베이터,1,2012-03-31,N,양호,제한없음,,정기점검,2022-06-17,경기도 고양시청,2022-11-10,3940000,경기도 고양시
하이파크4육교,기타,,하이파크로,경기도 고양시 일산서구 하이파크3로 62,37.69811075,126.7555528,116,116,,4.5,9.2,,,Y,경사로+엘리베이터,2,엘리베이터,1,2012-03-31,N,양호,제한없음,교대 데크교체,정기점검,2022-06-17,경기도 고양시청,2022-11-10,3940000,경기도 고양시
행신제1보도육교,시도,74번,중앙로,경기도 고양시 덕양구 중앙로 557번길 7-23,37.62247076,126.8360702,59,20,,4.5,3.3,,,Y,경사로,1,없음,,1995-01-01,N,양호,제한없음,,정기점검,2022-06-15,경기도 고양시청,2022-11-10,3940000,경기도 고양시
호수중앙육교(샵8),시도,71번,중앙로,경기도 고양시 일산동구 중앙로 1271-1,37.65948674,126.7726989,137.1,38,,4.5,7.9,,,Y,경사로,1,없음,,1994-07-01,N,양호,제한없음,화강석판석+ 하부도장 + 배수관교체,정기점검,2022-05-16,경기도 고양시청,2022-11-10,3940000,경기도 고양시
호수중앙육교(샵8),시도,71번,중앙로,경기도 고양시 일산동구 중앙로 1271-1,37.65948674,126.7726989,137.1,38,,4.5,7.9,,,Y,경사로,1,없음,,1994-07-01,N,양호,제한없음,화강석판석+ 하부도장 + 배수관 교체,정기점검,2022-05-16,경기도 고양시청,2022-11-10,3940000,경기도 고양시
화전보도육교,시도,74번,중앙로,"경기도 고양시 덕양구 중앙로152번길 3, 203-170 (화전동)",37.60196104,126.8716589,32.5,32.5,,4.7,4,,,N,없음,,없음,,1993-01-01,N,양호,제한없음,세척,정기점검,2022-06-15,경기도 고양시청,2022-11-10,3940000,경기도 고양시
신정육교,구도,,신정로203번길,울산광역시 남구 신정로203번길,35.54931947,129.3129127,19.3,,,4.5,3,,,Y,엘리베이터,1,,,2011-05-09, ,보통,제한없음,도장보수공사,정기점검,2022-04-15,울산광역시 남구청,2022-11-18,3700000,울산광역시 남구
솔마루다리,시도,,두왕로,울산광역시 남구 두왕로,35.52042024,129.3118247,55,,,4.5,2,,,N,없음,,,,2008-05-31, ,양호,제한없음,,정기점검,2022-04-15,울산광역시 남구청,2022-11-18,3700000,울산광역시 남구
안남초등학교 앞 육교,시도,0,연안로,부산광역시 동래구 연안로 46,35.191916,129.107461,33,4.5,,4.5,3,1.2,,N,없음,,,,2005-12-31, ,양호,제한없음,,정기점검,2022-09-30,동래구청,2022-11-14,3300000,부산광역시 동래구
신화타워 앞 육교,시도,0,온천장로,부산광역시 동래구 온천장로 20,35.214116,129.080172,71.5,4.5,,4.5,3,1.2,,N,없음,,,,1999-01-01, ,보통,제한없음,,정기점검,2022-09-29,동래구청,2022-11-14,3300000,부산광역시 동래구
서정2보도육교,시도,79번,서정로,"경기도 고양시 덕양구 서정로 37, 1091 (행신동, 신동아타운하우스)",37.61881372,126.8535919,50.1,50.1,,5.2,10,,,N,없음,,없음,,2008-01-01,N,양호,제한없음,,정기점검,2022-06-15,경기도 고양시청,2022-11-10,3940000,경기도 고양시
서정3보도육교,시도,79번,서정마을로,"경기도 고양시 덕양구 서정마을로 22, 1070 (행신동)",37.61842845,126.8497837,57.3,57.3,,5.2,6.7,,,Y,경사로,1,없음,,2008-01-01,N,양호,제한없음,,정기점검,2022-06-15,경기도 고양시청,2022-11-10,3940000,경기도 고양시
서정4보도육교,시도,79번,충경로,"경기도 고양시 덕양구 충경로 156, 1088 (행신동, 서정마을5단지아파트)",37.61662518,126.8469549,53.8,53.8,,4.5,6,,,Y,경사로,1,없음,,2008-01-01,N,양호,제한없음,세척,정기점검,2022-06-15,경기도 고양시청,2022-11-10,3940000,경기도 고양시
서정5보도육교,시도,74번,충경로,"경기도 고양시 덕양구 충경로 156, 1088 501동앞 (행신동, 서정마을5단지아파트)",37.61662518,126.8469549,46.6,46.6,,5.2,6,,,Y,엘리베이터,1,엘리베이터,1,2008-01-01,N,양호,제한없음,,정기점검,2022-06-15,경기도 고양시청,2022-11-10,3940000,경기도 고양시
성라육교,시도,94번,어울림로,경기도 고양시 덕양구 어울림로 33,37.64905648,126.835368,130,130,,5.2,4,,,N,없음,,없음,,2003-01-01,N,양호,제한없음,,정기점검,2022-06-15,경기도 고양시청,2022-11-10,3940000,경기도 고양시
아람누리육교(샵7),시도,74번,중앙로,경기도 고양시 일산동구 중앙로 1271-1,37.65948674,126.7726989,126.8,41,,4.5,7.9,,,Y,경사로,1,없음,,1994-07-01,N,양호,제한없음,도면보수+ 도장보수,정기점검,2022-05-16,경기도 고양시청,2022-11-10,3940000,경기도 고양시
도원,시도,,참외전로,인천광역시 중구 참외전로 212-3,37.47011799,126.638703,26,5,13.5,4.5,5,,,N,없음,,,,, ,보통,제한없음,,정기점검,2022-10-30,인천광역시 중구청,2023-01-30,3490000,인천광역시 중구
안곡육교,기타,,중산로,경기도 고양시 일산동구 중산로 147-1,37.685252,126.7808247,150,150,,4.5,4.9,,,Y,경사로,1,없음,,2006-05-29,N,양호,제한없음,,정기점검,2022-05-16,경기도 고양시청,2022-11-10,3940000,경기도 고양시
암센터앞육교(샵6),기타,,율천로,경기도 고양시 일산동구 율천로8번길 8-24,37.66523698,126.7841658,67.9,26.5,,4.5,7.9,,,Y,점자블럭+경사로,1,없음,,1994-07-01,N,양호,제한없음,,정기점검,2022-05-16,경기도 고양시청,2022-11-10,3940000,경기도 고양시
웨스턴돔육교,시도,62번,정발산로,경기도 고양시 일산동구 정발산로 24,37.65589641,126.7720388,62,62,,4.5,5.4,,,Y,경사로+ 엘리베이터,2,엘리베이터,1,2007-06-09,N,양호,제한없음,단면복구+ 바닥재포장,정기점검,2022-05-16,경기도 고양시청,2022-11-10,3940000,경기도 고양시
위시티1육교,기타,,식사로,경기도 고양시 일산동구 식사로 138,37.67803632,126.8194732,119.3,119.3,,4.5,5.4,,,Y,엘리베이터,1,엘리베이터,1,2012-03-31,N,양호,제한없음,목재데크보수,정기점검,2022-05-16,경기도 고양시청,2022-11-10,3940000,경기도 고양시
위시티2육교,기타,,위시티로,경기도 고양시 일산동구 위시티4로 46,37.68413609,126.8145837,51.7,51.7,,4.5,5.4,,,Y,엘리베이터,1,엘리베이터,1,2012-03-31,N,양호,제한없음,,정기점검,2022-05-16,경기도 고양시청,2022-11-10,3940000,경기도 고양시
위시티3육교,기타,,위시티로,경기도 고양시 일산동구 위시티4로 79,37.68156749,126.8074399678,60.6,60.6,,4.5,5.4,,,Y,경사로+엘리베이터,2,엘리베이터,1,2012-03-31,N,양호,제한없음,,정기점검,2022-05-16,경기도 고양시청,2022-11-10,3940000,경기도 고양시
위시티4육교,기타,,위시티로,경기도 고양시 일산동구 위시티4로 45,37.67881902,126.8158781,45.1,45.1,,4.5,5.4,,,Y,엘리베이터,1,엘리베이터,1,2012-03-31,N,양호,제한없음,,정기점검,2022-05-16,경기도 고양시청,2022-11-10,3940000,경기도 고양시
위시티5육교,기타,,위시티로,경기도 고양시 일산동구 위시티로 51,37.67695781,126.8099869,44.3,44.3,,4.5,5.4,,,Y,엘리베이터,1,엘리베이터,1,2012-03-31,N,양호,제한없음,,정기점검,2022-05-16,경기도 고양시청,2022-11-10,3940000,경기도 고양시
일산M-CITY육교,시도,71번,백마로,경기도 고양시 일산동구 백마로 195,37.65490653,126.7715403,59.1,59.1,,4.5,5,,,Y,엘리베이터,1,엘리베이터,1,2008-01-01,Y,양호,제한없음,,정기점검,2022-05-16,경기도 고양시청,2022-11-10,3940000,경기도 고양시
일산보도육교,지방도,356번,하늘마을로,경기도 고양시 일산동구 하늘마을로 76,37.68243677,126.7864135,43,43,,4.5,4,,,Y,경사로,1,없음,,2007-11-20,N,양호,제한없음,,정기점검,2022-06-17,경기도 고양시청,2022-11-10,3940000,경기도 고양시
장미구름다리,기타,,주엽로,경기도 고양시 일산서구 주엽로 77,37.667026,126.7530474,40,40,,4.5,6,,,Y,경사로,1,없음,,2005-06-22,N,보통,제한없음,바닥 상판 정비,정기점검,2022-06-17,경기도 고양시청,2022-11-10,3940000,경기도 고양시
장항육교(샵4),시도,71번,호수로,경기도 고양시 일산동구 호수로 550,37.6521491,126.7725307,84,42,,4.5,5.4,,,Y,경사로,1,없음,,1992-01-01,N,양호,제한없음,화강석판석+ 계단논슬립 교체,정기점검,2022-05-16,경기도 고양시청,2022-11-10,3940000,경기도 고양시
주교보도육교,지방도,356번,고양대로,경기도 고양시 덕양구 고양대로 1215,37.66316783,126.8237077,32.6,32.6,,5,3,,,N,없음,,없음,,1997-01-01,N,양호,제한없음,,정기점검,2022-06-15,경기도 고양시청,2022-11-10,3940000,경기도 고양시
지상경사로10,기타,,고봉로,경기도 고양시 일산서구 고봉로 133,37.67288456,126.771578,78.4,29.4,,4.5,5.4,,,Y,점자블럭+경사로,2,없음,,1993-06-09,Y,양호,제한없음,교대 단면 보수,정기점검,2022-06-17,경기도 고양시청,2022-11-10,3940000,경기도 고양시
지상경사로11,기타,,일산로,경기도 고양시 일산서구 일산로 551 (일산동),37.67787683,126.7666731,84,21,,4.5,7.9,,,Y,점자블럭+경사로,2,없음,,1993-05-17,N,보통,제한없음,계단판석 보수,정기점검,2022-06-17,경기도 고양시청,2022-11-10,3940000,경기도 고양시
지상경사로12,기타,,강성로,경기도 고양시 일산서구 강성로 124,37.67117236,126.7620632,79.2,31.7,,4.5,5.4,,,Y,경사로,1,없음,,1993-08-26,N,보통,제한없음,유도배수관 설치,정기점검,2022-06-17,경기도 고양시청,2022-11-10,3940000,경기도 고양시
지상경사로13,시도,71번,주엽로,경기도 고양시 일산서구 주엽로 102,37.66808929,126.7562756,84,21,,4.5,5.4,,,Y,경사로,1,없음,,1993-07-19,N,보통,제한없음,탄성포장,정기점검,2022-06-17,경기도 고양시청,2022-11-10,3940000,경기도 고양시
지상경사로14,기타,,일산로,경기도 고양시 일산서구 일산로 648,37.68267729,126.757102,62.3,41.5,,4.5,5.4,,,Y,경사로,1,없음,,1993-09-10,N,양호,제한없음,계단판석 보수,정기점검,2022-06-17,경기도 고양시청,2022-11-10,3940000,경기도 고양시
한치고개육교,시도,대로 1-1,범안로,경기도 광명시 범안로,37.4458772,126.859214,40,,,4,4,,,N,없음,,,,,Y,양호,제한없음,,정기점검,2022-06-02,경기도 광명시청,2022-11-11,3900000,경기도 광명시
생태육교(밤일마을),시도,대로 3-16,금하로,경기도 광명시 금하로,37.453215,126.856851,28.5,13.5,,4,35,,,N,없음,,,,,Y,양호,제한없음,,정기점검,2022-06-02,경기도 광명시청,2022-11-11,3900000,경기도 광명시
양지보도육교,시도,대로 2-0,서독로,경기도 광명시 서독로,37.4142839,126.8834102,,4.5,,4,,,,Y,승강기,,,,,Y,양호,제한없음,,정기점검,2022-06-02,경기도 광명시청,2022-11-11,3900000,경기도 광명시
광명역세권 보도육교,시도,중로 1-113,서독로,경기도 광명시 서독로,37.41258171,126.8848425,39,4.7,,4,4,,,Y,승강기,,,,,Y,양호,제한없음,,정기점검,2022-06-02,경기도 광명시청,2022-11-11,3900000,경기도 광명시
광명신촌 보도육교,시도,대로 1-3,강남순환고속도로,경기도 광명시 신촌로,37.44915348,126.8942893,53.7,,,4,4,,,Y,승강기,,,,,Y,양호,제한없음,,정기점검,2022-06-02,경기도 광명시청,2022-11-11,3900000,경기도 광명시
강촌육교(샵10),시도,62번,강송로,경기도 고양시 일산동구 강송로 217번길 49,37.6565703,126.7792186,79.1,31.8,,4.5,5.4,,,Y,점자블럭+경사로,2,없음,,1993-01-01,N,양호,제한없음,,정기점검,2022-05-16,경기도 고양시청,2022-11-10,3940000,경기도 고양시
고양관광문화단지 보행육교 TYPE-B 바이우다리,기타,,태극로,경기도 고양시 일산동구 태극로 20,37.6619258,126.7508077,81.9,81.9,,4.5,4.5,,,Y,경사로+엘리베이터,2,엘리베이터,1,2015-12-02,N,양호,제한없음,,정기점검,2022-05-16,경기도 고양시청,2022-11-10,3940000,경기도 고양시
고양관광문화단지 보행육교 TYPE-C 아름다리,기타,,한류월드로,경기도 고양시 일산동구 한류월드로 281,37.66172442,126.7546265,48.8,48.8,,4.5,4.5,,,Y,경사로+엘리베이터,2,엘리베이터,1,2015-12-02,N,양호,제한없음,,정기점검,2022-05-16,경기도 고양시청,2022-11-10,3940000,경기도 고양시
고양관광문화단지 보행육교 TYPE-D 설레임다리,기타,,한류월드로,경기도 고양시 일산동구 한류월드로 262,37.66226794,126.7569581,57,57,,4.5,4.5,,,Y,경사로+엘리베이터,2,엘리베이터,1,2011-11-30,Y,양호,제한없음,,정기점검,2022-05-16,경기도 고양시청,2022-11-10,3940000,경기도 고양시
고양관광문화단지 학교 앞 보도육교,기타,,한류월드로,경기도 고양시 일산동구 한류월드로 243,37.66012088,126.7583478,41,41,,4.5,7.3,,,Y,경사로+엘리베이터,2,엘리베이터,1,2016-12-31,N,양호,제한없음,,정기점검,2022-05-16,경기도 고양시청,2022-11-10,3940000,경기도 고양시
까치구름다리,기타,,주엽로,경기도 고양시 일산서구 주엽로 77,37.667053,126.7530474,50,50,,4.5,6,,,Y,경사로,1,없음,,2005-10-08,N,양호,제한없음,바닥 상판 정비,정기점검,2022-06-17,경기도 고양시청,2022-11-10,3940000,경기도 고양시
나비구름다리,기타,,호수로,경기도 고양시 일산서구 호수로 817 (대화동),37.66799365,126.7516307,61,61,,4.5,6,,,Y,점자블럭+경사로,2,없음,,2005-10-27,N,양호,제한없음,세척,정기점검,2022-06-17,경기도 고양시청,2022-11-10,3940000,경기도 고양시
내유보도육교,일반국도,1번,통일로,경기도 고양시 덕양구 통일로 1132,37.71556258,126.8519554,18.5,18.5,,4.5,3.1,,,N,엘리베이터,1,엘리베이터 + 캐노피,2,1997-01-01,N,양호,제한없음,,정기점검,2022-06-15,경기도 고양시청,2022-11-10,3940000,경기도 고양시
높빛구름다리,기타,,킨텍스로,경기도 고양시 일산서구 킨텍스로 217-6,37.66620656,126.747672,81,81,,4.5,6,,,Y,점자블럭+경사로,2,없음,,2005-03-15,N,양호,제한없음,계단판석 보수,정기점검,2022-06-17,경기도 고양시청,2022-11-10,3940000,경기도 고양시
다솜육교,기타,,숲속마을로,경기도 고양시 일산동구 숲속마을2로 147,37.67242119,126.7974725,78,78,,4.6,4,,,Y,점자블럭+경사로,2,없음,,2006-09-25,N,양호,제한없음,,정기점검,2022-05-16,경기도 고양시청,2022-11-10,3940000,경기도 고양시
대방이산디엠시티 보도육교,시도,71번,백마로,경기도 고양시 일산동구 백마로 195,37.65490653,126.7715403,47.8,47.8,,4.5,3,,,Y,경사로+엘리베이터,2,엘리베이터,1,2020-04-23,N,양호,제한없음,,정기점검,2022-06-17,경기도 고양시청,2022-11-10,3940000,경기도 고양시
마두1동육교(샵2),기타,,강송로,경기도 고양시 일산동구 강송로 175-1,37.65418455,126.7835689,84,21,,4.5,7.9,,,Y,점자블럭+경사로,2,없음,,1993-05-10,N,양호,제한없음,배수구 청소,정기점검,2022-05-16,경기도 고양시청,2022-11-10,3940000,경기도 고양시
마두2동육교(샵3),기타,,강송로,경기도 고양시 일산동구 강송로 181,37.65458633,126.7831444,118,25,,4.5,5.4,,,Y,점자블럭+경사로,2,없음,,1992-09-01,N,양호,제한없음,,정기점검,2022-05-16,경기도 고양시청,2022-11-10,3940000,경기도 고양시
밤가시육교(샵9),기타,,일산로,경기도 고양시 일산동구 일산로 333-1,37.66515333,126.7835571,131,37,,4.5,7.9,,,Y,점자블럭+경사로,2,없음,,1992-04-01,N,양호,제한없음,논슬립 교체+ 장애인점자블럭 정비,정기점검,2022-05-16,경기도 고양시청,2022-11-10,3940000,경기도 고양시
백마육교(샵5),시도,62번,강송로,경기도 고양시 일산동구 강송로 196,37.65630577,126.783197,96.6,96.6,,4.5,5.4,,,Y,점자블럭+경사로,2,없음,,1992-09-01,N,양호,제한없음,콘크리트보수도장,정기점검,2022-05-16,경기도 고양시청,2022-11-10,3940000,경기도 고양시
백석도서관육교(샵1),기타,,일산로,경기도 고양시 일산동구 일산로 111,37.64724262,126.792521,67.5,28,,4.5,5.8,,,Y,점자블럭+경사로,2,없음,,1994-07-01,N,양호,제한없음,석재판 보수,정기점검,2022-05-16,경기도 고양시청,2022-11-10,3940000,경기도 고양시
백송구름다리,시도,71번,킨텍스로,경기도 고양시 일산서구 킨텍스로 217-60,37.66893348,126.7458028,45,45,,4.5,6,,,Y,점자블럭+경사로,2,없음,,2005-10-28,N,양호,제한없음,세척,정기점검,2022-06-17,경기도 고양시청,2022-11-10,3940000,경기도 고양시
벽제보도육교,일반국도,39번,호국로,경기도 고양시 덕양구 호국로 1413,37.68098252,126.8929304,39.6,39.6,,4.5,2.3,,,Y,점자블럭+경사로,2,없음,,1996-01-01,N,양호,제한없음,,정기점검,2022-06-15,경기도 고양시청,2022-11-10,3940000,경기도 고양시
서정1보도육교,시도,74번,소원로,"경기도 고양시 덕양구 소원로 267, 1096 (행신동, 서정마을3단지아파트)",37.61535896,126.851061,46.6,46.6,,5.2,6,,,Y,경사로,1,없음,,2008-01-01,N,양호,제한없음,,정기점검,2022-06-15,경기도 고양시청,2022-11-10,3940000,경기도 고양시
수억고육교,기타,,우계로,경기도 파주시 향양리 714-2,37.843418,126.812741,34,,3.5,4.5,2,,,N,없음,0,없음,0,,N,보통,제한없음,,정기점검,2022-03-24,경기도 파주시청 도로관리과,2022-11-09,4060000,경기도 파주시
금촌2동 육교,기타,,쇠재로,경기도 파주시 금촌동 1011,37.7515966,126.7766223,24,,3.5,4.5,3,,,N,없음,0,없음,0,,N,보통,제한없음,,정기점검,2022-03-24,경기도 파주시청 도로관리과,2022-11-09,4060000,경기도 파주시
골사그네육교,일반국도,국도1호선,경수대로,경기도 의왕시 경수대로 81,37.334824,126.980738,51.7,4.5,,4.5,3,1.05,12,Y,경사로,2,없음,,2001-12-31,N,양호,제한없음,,정기점검,2020-04-02,경기도 의왕시청,2022-11-21,4030000,경기도 의왕시
갈미제1육교,일반국도,국도1호선,갈미로,경기도 의왕시 갈미로 61,37.376677,126.974445,43.8,5.3,,4.5,3,1.4,2,Y,경사로,2,없음,,2001-12-30,N,양호,제한없음,,정기점검,2020-04-02,경기도 의왕시청,2022-11-21,4030000,경기도 의왕시
갈미제2육교,일반국도,국도1호선,갈미1로,경기도 의왕시 갈미로 27,37.377178,126.971818,44,5.3,,4.5,3,1.4,2,Y,경사로,2,없음,,2001-12-31,N,양호,제한없음,,정기점검,2020-04-02,경기도 의왕시청,2022-11-21,4030000,경기도 의왕시
갈미제4육교,일반국도,국도1호선,관평로,경기도의왕시 계원대학로 34,37.379418,126.974829,76.4,5.3,,4.5,3,1.3,9,Y,경사로,2,없음,,2001-12-30,N,양호,제한없음,,정기점검,2020-04-02,경기도 의왕시청,2022-11-21,4030000,경기도 의왕시
의왕초교육교,일반국도,국도1호선,모락로,경기도 의왕시 모락로 56,37.363331,126.967444,30,4.9,,4.8,3,1.57,52,Y,경사로,2,캐노피,1,2002-12-31,N,양호,제한없음,,정기점검,2020-04-02,경기도 의왕시청,2022-11-21,4030000,경기도 의왕시
청계육교,일반국도,국도1호선,안양판교로,경기도 의왕시 안양판교로 238,37.38896233,126.9975722,41,5.2,,5,3,1.3,22,Y,점자블럭+엘리베이터,3,엘리베이터,2,2008-12-31,N,양호,제한없음,목재데크재+도장,정기점검,2020-04-02,경기도 의왕시청,2022-11-21,4030000,경기도 의왕시
고천육교,일반국도,국도1호선,경수대로,경기도 의왕시 경수대로 233,37.347615,126.974206,33,6.3,,5,4.4,1.15,8,Y,점자블럭+엘리베이터,3,엘리베이터,2,2007-12-30,N,양호,제한없음,,정기점검,2020-04-02,경기도 의왕시청,2022-11-21,4030000,경기도 의왕시
오전육교,일반국도,국도1호선,경수대로,경기도 의왕시 경수대로 307,37.353631,126.970361,76.4,6.5,,5,4.4,1.17,8,Y,점자블럭+엘리베이터,3,엘리베이터,2,2007-12-30,N,양호,제한없음,목재데크+ 배수관 재설치,정기점검,2020-04-02,경기도 의왕시청,2022-11-21,4030000,경기도 의왕시
의왕역보도육교,일반국도,국도1호선,왕송못동로,경기도 의왕시 왕송못동로 79,37.321324,126.945829,40,6.5,,5,5,1.87,17,Y,경사로+엘리베이터,2,캐노피+엘리베이터,2,,N,양호,제한없음,,정기점검,2020-04-02,경기도 의왕시청,2022-11-21,4030000,경기도 의왕시
포일숲속보도육교,일반국도,국도1호선,성고개로,경기도 의왕시이미로 40,37.40180614,126.9918992,34,5.7,,5.5,3.5,1.2,7,Y,점자블록+엘리베이터,3,엘리베이터,2,,N,양호,제한없음,,정기점검,2020-04-02,경기도 의왕시청,2022-11-21,4030000,경기도 의왕시
등산보도육교,일반국도,국도1호선,안양판교로,경기도 의왕시 하오개로 60,37.393587,127.038143,62,,,5,3,2.3,6,N,없음,0,없음,,,N,양호,제한없음,,정기점검,2020-04-02,경기도 의왕시청,2022-11-21,4030000,경기도 의왕시
의왕톨게이트육교,지방도,지방도309호선,과천봉담도고속화도로,경기도 의왕시 오전로 24,37.347446,126.984456,130,5.1,,4.5,2.4,1.95,2,Y,엘리베이터,2,캐노피+엘리베이터,3,2017-12-31,N,양호,제한없음,,정기점검,2020-04-02,경기도 의왕시청,2022-11-21,4030000,경기도 의왕시
학의천1교,일반국도,국도1호선,학의로,경기도 의왕시 학의로 466,37.391084,126.986321,56,4.08,,3,4.3,1.3,18,Y,경사로,1,없음,,,N,양호,제한없음,,정기점검,2020-04-02,경기도 의왕시청,2022-11-21,4030000,경기도 의왕시
학의천2교,일반국도,국도1호선,안양판교로,경기도 의왕시 안양판교로 226,37.387759,126.990659,50,3.6,,3,4.3,1.3,8,Y,경사로,1,없음,,,N,양호,제한없음,,정기점검,2020-04-02,경기도 의왕시청,2022-11-21,4030000,경기도 의왕시
금천보도교,일반국도,국도1호선,왕송못동로,경기도 의왕시 왕송못동로 78,37.321961,126.945377,26,1.8,,0,6,1.2,0,Y,경사로,1,없음,,,N,양호,제한없음,,정기점검,2020-04-02,경기도 의왕시청,2022-11-21,4030000,경기도 의왕시
철산보도육교,시도,대로 2-18,남부순환로,경기도 광명시 남부순환로,37.492500,126.8681189,142,4.5,,4,4,,,N,없음,,,,,Y,양호,제한없음,,정기점검,2022-06-02,경기도 광명시청,2022-11-11,3900000,경기도 광명시
사성보도육교,시도,대로 2-11,안양천로,경기도 광명시 안양천로,37.4947562,126.8687734,236,9,,4,6,,,N,없음,,,,,Y,양호,제한없음,,정기점검,2022-06-02,경기도 광명시청,2022-11-11,3900000,경기도 광명시
목감천보도교,시도,소로 3-13,목감로,경기도 광명시 목감로 346,37.4904299530,126.8629941741,63,6,,4,4,,,N,없음,,,,,Y,양호,제한없음,,정기점검,2022-06-02,경기도 광명시청,2022-11-11,3900000,경기도 광명시
햇무리육교,시도,대로 2-11,철산로,경기도 광명시 철산로 13,37.48223337,126.8718214,105.1,5.7,,4,3.6,,,Y,승강기,,,,,Y,양호,제한없음,,정기점검,2022-06-02,경기도 광명시청,2022-11-11,3900000,경기도 광명시
미리내육교,시도,대로 2-11,철산로,경기도 광명시 시청로138번안길 18,37.4874365549,126.8697004308,56,6.2,,4,3.6,,,Y,승강기,,,,,Y,양호,제한없음,,정기점검,2022-06-02,경기도 광명시청,2022-11-11,3900000,경기도 광명시
소하초교육교,시도,대로 2-1182,금하로,경기도 광명시 소하일로 51,37.4496729399,126.8875059,38,5,,4,4.6,,,Y,승강기,,,,,Y,양호,제한없음,,정기점검,2022-06-02,경기도 광명시청,2022-11-11,3900000,경기도 광명시
물결어린이공원육교,시도,대로 2-1183,소하로,경기도 광명시 기아로62번길 16-8,37.4353298076,126.8861033840,32,5,,4,4,,,Y,승강기,,,,,Y,양호,제한없음,,정기점검,2022-06-02,경기도 광명시청,2022-11-11,3900000,경기도 광명시
생태육교(보건소),시도,대로 3-0,오리로,경기도 광명시 오리로,37.4539603,126.8815112,33,7.68,,4,15,,,N,없음,,,,,Y,양호,제한없음,,정기점검,2022-06-02,경기도 광명시청,2022-11-11,3900000,경기도 광명시
북부 화명소방서 앞 육교,시도,,금곡대로,부산광역시 북구 금곡대로186번길 13,35.22637373,129.0116866,25.5,5.2,,5,3,1.1,,N,없음,,,,1996-01-01,N,보통,제한없음,단면보수 및 재도색,정기점검,2021-11-30,부산광역시 북구,2022-11-09,3320000,부산광역시 북구
금곡역 앞 육교,시도,,금곡대로,부산광역시 북구 금곡대로 685,35.26747006,129.0169099,45,6,,5.5,3,1.1,,N,없음,,,,2015-01-01,N,양호,제한없음,,정기점검,2021-11-30,부산광역시 북구,2022-11-09,3320000,부산광역시 북구
동원아파트 앞 보행가교,구도,,덕천로234번길,부산광역시 북구 덕천로234번길 7,35.20948505,129.0306168,26.4,5,,4,3,1.1,,N,없음,,,,2009-01-01,N,양호,제한없음,,정기점검,2021-11-30,부산광역시 북구,2022-11-09,3320000,부산광역시 북구
구남초등학교 앞 과선육교,기타,,구남언덕도20번길,부산광역시 북구 구남로14번가길 23,35.2002945,128.9935693,27,5,,4,3,1.1,,N,없음,,,,1998-01-01,N,보통,제한없음,,정기점검,2021-11-30,부산광역시 북구,2022-11-09,3320000,부산광역시 북구
가야시장 앞 육교,시도,광역시도30호선(광로 2-2),가야대로,부산광역시 부산진구 가야대로 669,35.156391,129.045113,41,5,,5,5,1.2,7,Y,경사로,1,난간+가로등,8,2000-12-31,N,보통,제한없음,,정기점검,2022-06-02,부산광역시 부산진구,2022-11-25,3290000,부산광역시 부산진구
사상경계 농협 앞 육교,시도,광역시도30호선(광로 2-2),가야대로,부산광역시 부산진구 가야대로 406,35.15182179,129.0167899,52,4,,5,4,1.2,7,N,없음,,난간+가로등,8,1991-01-31,N,보통,제한없음,,정기점검,2022-06-14,부산광역시 부산진구,2022-11-25,3290000,부산광역시 부산진구
가야1파출소 옆 육교,시도,광역시도30호선(광로 2-2),가야대로,부산광역시 부산진구 가야대로 594,35.154691,129.037025,42,4.5,,4.5,4,1.2,8,Y,경사로,1,난간+가로등,9,2002-11-30,N,보통,제한없음,,정기점검,2022-06-14,부산광역시 부산진구,2022-11-25,3290000,부산광역시 부산진구
부암초등학교 진입로변 육교,시도,광역시도3202호선(대로 3-20),동평로,부산광역시 부산진구 동평로 162,35.165809,129.047337,36,3,,5,3,1.2,5,N,없음,,난간+가로등,6,1988-03-31,N,보통,제한없음,,정기점검,2022-06-14,부산광역시 부산진구,2022-11-25,3290000,부산광역시 부산진구
부산진초등학교 진입로 육교,시도,광역시도32호선(광로 3-14),신천대로,부산광역시 부산진구 신천대로 85,35.150791,129.056053,47,2.5,,5,2.5,1.2,4,N,없음,,난간+가로등,5,1994-04-30,N,보통,제한없음,,정기점검,2022-06-14,부산광역시 부산진구,2022-11-25,3290000,부산광역시 부산진구
진양삼거리 앞 육교,시도,광역시도35호선(광로 3-9),백양대로,부산광역시 부산진구 백양대로 12-1,35.162393,129.048401,35,3,,5,3,1.2,6,N,없음,,난간+가로등,7,1994-05-31,N,보통,제한없음,,정기점검,2022-06-02,부산광역시 부산진구,2022-11-25,3290000,부산광역시 부산진구
개금초등학교 앞 육교,시도,광역시도35호선(광로 3-9),가야대로,부산광역시 부산진구 가야대로443번길 29,35.155012,129.021449,90,4.5,,4.5,4,1.2,10,Y,엘리베이터,2,난간+가로등+엘리베이터,13,2001-11-30,N,보통,제한없음,,정기점검,2022-06-14,부산광역시 부산진구,2022-11-25,3290000,부산광역시 부산진구
진양 메리움 앞 육교,시도,광역시도32호선(광로 3-1),신천대로,부산광역시 부산진구 신천대로 241,35.163309,129.050132,37.5,3,,5,3,1.2,4,Y,엘리베이터,2,난간+가로등+엘리베이터,7,1998-12-31,N,보통,제한없음,,정기점검,2022-06-02,부산광역시 부산진구,2022-11-25,3290000,부산광역시 부산진구
국제백양아파트 입구 육교,시도,광역시도33호선(광로 3-13),백양관문로,부산광역시 부산진구 백양관문로 84,35.166317,129.028541,50,3,,5,4,1.2,7,Y,경사로,1,난간+가로등,8,1999-03-31,N,보통,제한없음,,정기점검,2022-06-09,부산광역시 부산진구,2022-11-25,3290000,부산광역시 부산진구
당감동일아파트 앞 육교,시도,광역시도33호선(광로 3-13),백양관문로,부산광역시 부산진구 백양관문로 109,35.168315,129.027414,50,3,,5,4,1.2,6,N,없음,,난간+가로등,7,1999-03-31,N,보통,제한없음,,정기점검,2022-06-09,부산광역시 부산진구,2022-11-25,3290000,부산광역시 부산진구
한매육교,지방도,357,남북로,경기도 파주시 목동동 1152-1,37.7294968,126.7375778,52.5,,3.5,4.5,4.5,,,Y,승강기+경사로,4,엘리베이터,2,,N,보통,제한없음,,정기점검,2022-03-24,경기도 파주시청 도로관리과,2022-11-09,4060000,경기도 파주시
한마루육교,기타,,책향기로,경기도 파주시 목동동 645,37.7294552,126.7472994,47,,3.5,4.5,4.5,,,Y,승강기,2,엘리베이터,2,,N,보통,제한없음,,정기점검,2022-03-24,경기도 파주시청 도로관리과,2022-11-09,4060000,경기도 파주시
짚풀육교,기타,,교하로,경기도 파주시 목동동 926,37.7295354,126.7347078,28,,3.5,4.5,4.5,,,Y,승강기,2,엘리베이터,2,,N,보통,제한없음,,정기점검,2022-03-24,경기도 파주시청 도로관리과,2022-11-09,4060000,경기도 파주시
한울육교,기타,,한울로,경기도 파주시 동패동 1903,37.7113496,126.7367353,28,,3.5,4.5,4.5,,,Y,승강기+경사로,4,엘리베이터,2,,N,보통,제한없음,,정기점검,2022-03-24,경기도 파주시청 도로관리과,2022-11-09,4060000,경기도 파주시
오름육교,기타,,한빛로,경기도 파주시 야당동 990,37.7132071,126.7539104,28,,3.5,4.5,4.5,,,Y,승강기,2,엘리베이터,2,,N,보통,제한없음,,정기점검,2022-03-24,경기도 파주시청 도로관리과,2022-11-09,4060000,경기도 파주시
오솔육교,지방도,359,경의로,경기도 파주시 야당동 998,37.7119839,126.7592107,46,,3.5,4.5,4.5,,,Y,승강기+경사로,4,엘리베이터,2,,N,보통,제한없음,,정기점검,2022-03-24,경기도 파주시청 도로관리과,2022-11-09,4060000,경기도 파주시
한빛육교,기타,,심학산로,경기도 파주시 와동동 1403,37.7169547,126.7537164,33,,3.5,4.5,4.5,,,Y,승강기+경사로,4,엘리베이터,2,,N,보통,제한없음,,정기점검,2022-03-24,경기도 파주시청 도로관리과,2022-11-09,4060000,경기도 파주시
해솔육교,기타,,와석순환로,경기도 파주시 목동동 676,37.7240939,126.7470116,33,,3.5,4.5,4.5,,,Y,승강기+경사로,4,엘리베이터,2,,N,보통,제한없음,,정기점검,2022-03-24,경기도 파주시청 도로관리과,2022-11-09,4060000,경기도 파주시
중앙육교,기타,,청석로,경기도 파주시 동패동 1745-2,37.722852,126.717322,108,,3.5,4.5,3,,,Y,경사로,0,없음,0,,N,보통,제한없음,,정기점검,2022-03-24,경기도 파주시청 도로관리과,2022-11-09,4060000,경기도 파주시
교하육교,지방도,56,파주로,경기도 파주시 문발동 621-1,37.724651,126.708842,33,,3.5,4.5,3,,,N,없음,0,없음,0,,N,보통,제한없음,,정기점검,2022-03-24,경기도 파주시청 도로관리과,2022-11-09,4060000,경기도 파주시
금정I.C 보도육교,일반국도,47,군포로,경기도 군포시 공단로 237,37.36581221,126.9467232,54.5,,,6,3,,,N,없음,0,없음,0,1996-01-01,N,보통,제한없음,,정기점검,2022-11-01,경기도 군포시청,2022-11-03,4020000,경기도 군포시
태을초교앞 보도육교,시도,,산본로,경기도 군포시 산본로482번길 3,37.37218592,126.9279071,41.5,6.1,,4.5,2.5,1,,Y,경사로,2,캐노피,7,1996-01-01,Y,보통,제한없음,,정기점검,2022-11-01,경기도 군포시청,2022-11-03,4020000,경기도 군포시
당동 보도육교,시도,,고산로,경기도 군포시 용호1로 55,37.34787213,126.9396228,41,,,4.5,4,,,Y,경사로,3,캐노피,14,2005-01-01,N,보통,제한없음,,정기점검,2022-11-01,경기도 군포시청,2022-11-03,4020000,경기도 군포시
금정역북부역사육교,시도,,군포로,경기도 군포시 군포로 759,37.37284232,126.9423669,36.8,,,6.8,5,,,Y,점자블럭,7,엘리베이터+캐노피,5,2006-01-01,N,보통,제한없음,,정기점검,2022-11-01,경기도 군포시청,2022-11-03,4020000,경기도 군포시
군포부곡 보도육교,시도,,번영로,경기도 군포시 번영로 12,37.32341633,126.9401165,129.3,,,4.5,4,,,Y,경사로,2,엘리베이터+캐노피,5,2010-01-01,Y,보통,제한없음,,정기점검,2022-11-01,경기도 군포시청,2022-11-03,4020000,경기도 군포시
삼성보도육교,시도,,삼성로,경기도 군포시 삼성로 41,37.33858358,126.9316471,32,,,5,5,,,Y,경사로,2,캐노피,3,2014-01-01,Y,보통,제한없음,,정기점검,2022-11-01,경기도 군포시청,2022-11-03,4020000,경기도 군포시
금정역남부역사육교,시도,,군포로,경기도 군포시 군포로 743-1,37.371563,126.9428965,31.6,,,6.8,5,,,Y,점자블럭,1,엘리베이터+캐노피,2,1988-10-25,N,보통,제한없음,,정기점검,2022-11-01,경기도 군포시청,2022-11-03,4020000,경기도 군포시
군포송정 보도육교,시도,,송부로,경기도 군포시 도마교동 470,37.316846,126.920642,32,,,5,3.5,,,N,없음,0,엘리베이터+캐노피,3,2018-06-30,N,보통,제한없음,,정기점검,2022-11-01,경기도 군포시청,2022-11-03,4020000,경기도 군포시
봉암육교,일반국도,26,전진로,전라북도 진안군 부귀면 봉암리 445-14,35.848884,127.339655,28,5.5,,4.7,30,1.2,,N,없음,0,0,0,2000-12-24,N,보통,제한없음,,정기점검,2021-06-30,전주국토관리사무소,2022-11-29,4730000,전라북도 진안군
나운육교,시도,,대학로,전라북도 군산시 대학로 257,35.969755,126.698143,21.6,5.5,,5,4,,,N,없음,0,없음,0,1992-04-30,N,양호,제한없음,도장,정기점검,2020-12-31,전라북도 군산시청,2022-11-28,4670000,전라북도 군산시
동신육교,시도,,공단대로,전라북도 군산시 축동로 4,35.959582,126.7108828,30,5.1,,4.8,4,,,N,없음,0,없음,0,1998-05-30,N,양호,제한없음,도장,정기점검,2020-12-31,전라북도 군산시청,2022-11-28,4670000,전라북도 군산시
미룡초교육교,시도,,대학로,전라북도 군산시 대학로 507,35.950055,126.685785,50.5,5,,4.5,4,,,Y,경사로,1,없음,0,2002-07-30,N,양호,제한없음,,정기점검,2020-12-31,전라북도 군산시청,2022-11-28,4670000,전라북도 군산시
미성육교,시도,,대학로,전라북도 군산시 대학로 438,35.954559,126.687034,195,5,,4.5,4,,,Y,경사로,1,없음,0,2003-12-30,N,양호,제한없음,,정기점검,2020-12-31,전라북도 군산시청,2022-11-28,4670000,전라북도 군산시
개정초교육교,일반국도,27,번영로,전라북도 군산시 개정면 동정1길 19,35.963167,126.769079,32.2,5.5,,4.8,4,,,N,없음,0,없음,0,2004-06-30,N,양호,제한없음,도장,정기점검,2020-12-31,전라북도 군산시청,2022-11-28,4670000,전라북도 군산시
대덕문화육교,시도,24번,대로1류,대구광역시 남구 앞산순환로 478,35.83129333,128.5769704,39,4.5,,4.5,3,1.1,7,N,없음,,,,2002-06-28, ,양호,제한없음,육교 도색+누수방지,정기점검,2022-06-11,대구광역시 남구청,2022-12-09,3440000,대구광역시 남구
대명육교,시도,1번,광로3류,대구광역시 남구 대명로 100,35.83886938,128.5688899,34,4.5,,4.5,3,1.2,8,N,없음,,,,1987-12-24, ,양호,제한없음,,정기점검,2022-06-11,대구광역시 남구청,2022-12-09,3440000,대구광역시 남구
화정육교,구도,,월드컵4강로,광주광역시 서구 상무대로 985-1,35.15166169,126.8722501,29,,,5,3,,,N,없음,,,,1998-01-01, ,양호,제한없음,,정기점검,2022-06-30,광주광역시 서구청,2022-11-29,3600000,광주광역시 서구
양동육교,구도,,경열로,광주광역시 서구 경열로 지하152,35.15443316,126.9014647,25,,,5,3.3,,,N,없음,,,,2001-01-01, ,양호,제한없음,,정기점검,2022-06-30,광주광역시 서구청,2022-11-29,3600000,광주광역시 서구
광천육교,구도,,월산로,광주광역시 서구 농성동 425-1,35.15922697,126.8888773,16.6,,,5,3,,,N,없음,,,,1991-01-01, ,양호,제한없음,,정기점검,2022-06-30,광주광역시 서구청,2022-11-29,3600000,광주광역시 서구
터미널2육교,구도,,죽봉대로,광주광역시 서구 농성동 415-41,35.16005547,126.8832868,35,,,5,3,,,N,없음,,,,1992-01-01, ,양호,제한없음,,정기점검,2022-06-30,광주광역시 서구청,2022-11-29,3600000,광주광역시 서구
쌍촌2육교,구도,,상무대로,광주광역시 서구 상무대로 지하983(쌍촌동),35.1515209,126.8696075,35.8,,,5,3,,,N,없음,,,,1997-01-01, ,양호,제한없음,,정기점검,2022-06-30,광주광역시 서구청,2022-11-29,3600000,광주광역시 서구
염주육교,구도,,월드컵4강로,광주광역시 서구 화정동 899,35.14814778,126.8714353,22,,,5,3,,,N,없음,,,,1997-01-01, ,양호,제한없음,,정기점검,2022-06-30,광주광역시 서구청,2022-11-29,3600000,광주광역시 서구
만호육교,구도,,금화로,광주광역시 서구 금호동 244-5,35.13200808,126.8547531,29,,,5,3,,,N,없음,,,,2006-01-01, ,양호,제한없음,,정기점검,2022-06-30,광주광역시 서구청,2022-11-29,3600000,광주광역시 서구
상무1육교,구도,,상무중앙로,광주광역시 서구 치평동 1235,35.15340075,126.8483058,30,,,5,4,,,N,없음,,,,1997-01-01, ,양호,제한없음,,정기점검,2022-06-30,광주광역시 서구청,2022-11-29,3600000,광주광역시 서구
상무2육교,구도,,운천로,광주광역시 서구 치평동 1225,35.15615354,126.8549626,28,,,5,4,,,N,없음,,,,1997-01-01, ,양호,제한없음,,정기점검,2022-06-30,광주광역시 서구청,2022-11-29,3600000,광주광역시 서구
운천육교,구도,,상무자유로,광주광역시 서구 치평동 1170,35.15162916,126.8470799,35,,,5,3,,,N,없음,,,,2000-01-01, ,양호,제한없음,,정기점검,2022-06-30,광주광역시 서구청,2022-11-29,3600000,광주광역시 서구
중의육교,시도,,경인로,경기도 부천시 경인로137,37.48427132,126.7707093,20.5,,,7,4,,,N,없음,,,,1996-01-01, ,보통,제한없음,,정기점검,2021-12-21,경기도 부천시 도로관리과,2022-10-24,3860000,경기도 부천시
